~VERSION INFORMATION
 VERS.                    2.0 : CWLS Log ASCII Standard - VERSION 2.0
 WRAP.                     NO : ONE LINE PER DEPTH STEP

~WELL INFORMATION
 WELL.              Well-Beta : WELL NAME
 FLD .                FIELD-A : FIELD NAME
 LOC .         SEC 12 T5N R6E : LOCATION
 CTRY.                    USA : COUNTRY
 SRVC.           SYNTH LOGGER : SERVICE COMPANY
 DATE.              2024-01-15 : LOG DATE
 UWI .       30-045-20130-00-00 : UNIQUE WELL ID

~CURVE INFORMATION
 DEPT.M                      : DEPTH
 GR  .GAPI                   : GAMMA RAY
 NPHI.V/V                    : NEUTRON POROSITY
 RHOB.G/CC                   : BULK DENSITY
 RT  .OHMM                   : TRUE RESISTIVITY

~PARAMETER INFORMATION
 STRT.M            2500.00 : START DEPTH
 STOP.M            4000.50 : STOP DEPTH
 STEP.M                  0.5 : STEP
 NULL.              -999.25 : NULL VALUE

~ASCII LOG DATA
# ...
   3930.000     27.599     0.1672     2.7075    238.685
   3930.500     20.511     0.1852     2.7382    420.187
   3931.000     36.999     0.1591     2.7008    283.355
   3931.500     37.064     0.1697     2.6446    613.092
   3932.000     17.508     0.1596     2.6896    791.505
   3932.500     24.131     0.1358     2.6126    346.347
   3933.000     30.359     0.1778     2.6889    311.503
   3933.500     24.049     0.1283     2.6375    520.078
   3934.000     21.479     0.1985     2.6494    526.983
   3934.500     32.747     0.0868     2.7525     98.594
   3935.000     26.011     0.1367     2.6639    607.335
   3935.500     25.596     0.1039     2.7815    735.966
   3936.000     39.823     0.0860     2.6446    686.938
   3936.500     28.722     0.1178     2.6173    547.546
   3937.000     37.049     0.1407     2.6920    632.375
   3937.500     27.079     0.2007     2.6592    360.038
   3938.000     29.110     0.1719     2.6487    149.721
   3938.500     22.530     0.1659     2.6241    788.728
   3939.000     34.362     0.1916     2.7062    312.634
   3939.500     38.292     0.1125     2.6204    324.147
   3940.000     29.086     0.1444     2.7700    385.162
   3940.500     22.738     0.1692     2.7023    463.550
   3941.000     31.996     0.1527     2.6187    747.557
   3941.500     19.816     0.1960     2.7067    120.896
   3942.000     24.169     0.1736     2.6295    225.838
   3942.500     24.806     0.1742     2.6605    564.401
   3943.000     24.770     0.1623     2.6100     99.905
   3943.500     41.204     0.1692     2.6342     98.994
   3944.000     36.173     0.1960     2.6696    417.590
   3944.500     24.603     0.1732     2.7771    814.865
   3945.000     35.544     0.1399     2.6290    326.924
   3945.500     26.586     0.1657     2.6605    283.007
   3946.000     28.377     0.1125     2.6606    501.265
   3946.500     25.545     0.0877     2.7762    215.261
   3947.000     37.491     0.1915     2.7543    546.734
   3947.500     34.405     0.1237     2.6816    115.784
   3948.000     17.560     0.1180     2.6944    266.986
   3948.500     24.923     0.1090     2.7630    497.605
   3949.000     38.916     0.1914     2.6734    319.948
   3949.500     35.074     0.1347     2.7822    215.428
   3950.000     24.745     0.1297     2.7566    770.937
   3950.500     25.508     0.1913     2.7187     87.642
   3951.000     28.017     0.0857     2.6370    144.327
   3951.500     31.914     0.1274     2.7601    131.743
   3952.000     22.713     0.1824     2.6928    411.897
   3952.500     40.546     0.1252     2.6322    183.983
   3953.000     31.597     0.0939     2.7585    544.589
   3953.500     23.287     0.1762     2.6850    837.278
   3954.000     28.949     0.0913     2.7652    383.104
   3954.500     19.235     0.1269     2.7623    266.346
   3955.000     20.946     0.1591     2.7114    672.646
   3955.500     36.933     0.1069     2.7515    131.126
   3956.000     19.354     0.1093     2.6943    523.803
   3956.500     20.256     0.1641     2.7453    804.830
   3957.000     23.934     0.0853     2.7329    652.525
   3957.500     31.175     0.1984     2.7726    303.184
   3958.000     39.534     0.1958     2.6068    464.732
   3958.500     22.771     0.1642     2.6488    382.271
   3959.000     19.761     0.0821     2.6339    749.038
   3959.500     38.287     0.1409     2.7355    150.024
   3960.000     40.505     0.1188     2.6877    653.241
   3960.500     35.144     0.1645     2.7607    728.267
   3961.000     39.587     0.1559     2.6565    544.350
   3961.500     40.428     0.1857     2.7657    551.873
   3962.000     26.322     0.0840     2.6538    814.694
   3962.500     31.542     0.1875     2.6669    340.264
   3963.000     41.449     0.1874     2.6519    552.872
   3963.500     27.537     0.1626     2.6047    141.893
   3964.000     15.291     0.0944     2.6507    178.801
   3964.500     31.390     0.1707     2.6809    789.452
   3965.000     21.360     0.1528     2.7469    244.090
   3965.500     31.597     0.1123     2.6168    175.317
   3966.000     21.844     0.0803     2.6353    162.838
   3966.500     16.761     0.1339     2.6863    118.670
   3967.000     32.295     0.1078     2.6338    701.671
   3967.500     30.562     0.0864     2.6113    729.258
   3968.000     23.216     0.1253     2.6403    208.819
   3968.500     30.583     0.1445     2.6522    550.741
   3969.000     21.038     0.1409     2.6511    824.065
   3969.500     19.817     0.1396     2.6651    656.569
   3970.000     22.338     0.1255     2.7621    835.617
   3970.500     37.880     0.2006     2.7543    886.400
   3971.000     35.934     0.1657     2.7008    372.794
   3971.500     21.316     0.1506     2.6086    363.225
   3972.000     36.882     0.0979     2.7786    738.494
   3972.500     30.858     0.1782     2.6177    570.674
   3973.000     25.319     0.1579     2.6078    381.447
   3973.500     16.784     0.1193     2.7376    226.661
   3974.000     19.074     0.1921     2.7101    271.861
   3974.500     40.267     0.1729     2.7327     87.091
   3975.000     33.679     0.1734     2.6866    588.768
   3975.500     29.355     0.1231     2.7608    333.299
   3976.000     35.413     0.1896     2.6278    139.108
   3976.500     19.617     0.0988     2.7763    616.943
   3977.000     20.294     0.1444     2.7329    759.083
   3977.500     36.534     0.1603     2.7437    747.126
   3978.000     33.455     0.1048     2.6980    575.336
   3978.500     25.613     0.1400     2.7270    417.009
   3979.000     37.994     0.1743     2.7484    838.626
   3979.500     19.427     0.1538     2.6224    460.023
   3980.000     39.134     0.1777     2.7425    487.678
   3980.500     28.828     0.1144     2.6072    684.534
   3981.000     26.430     0.1863     2.7185    769.763
   3981.500     38.611     0.1874     2.6698    471.984
   3982.000     19.496     0.1435     2.7891    215.662
   3982.500     22.157     0.1026     2.7226    864.846
   3983.000     34.701     0.1120     2.6766     79.767
   3983.500     27.904     0.1683     2.7062    805.092
   3984.000     29.552     0.1725     2.6090    219.302
   3984.500     18.559     0.1706     2.7254    466.100
   3985.000     21.062     0.0959     2.6459    310.029
   3985.500     22.825     0.1107     2.7519    645.238
   3986.000     39.248     0.1022     2.6583    539.955
   3986.500     31.400     0.1292     2.6011    210.155
   3987.000     31.304     0.1606     2.5940    373.040
   3987.500     32.114     0.1027     2.6565    296.025
   3988.000     34.192     0.0945     2.6826    636.510
   3988.500     36.073     0.1427     2.7278    125.415
   3989.000     19.035     0.1913     2.7290    889.183
   3989.500     16.430     0.1060     2.6364    392.814
   3990.000     35.991     0.0895     2.6833    118.281
   3990.500     23.786     0.1165     2.6886    183.098
   3991.000     32.789     0.1408     2.6199    731.246
   3991.500     24.123     0.1408     2.6280    141.684
   3992.000     16.115     0.1132     2.6106    364.904
   3992.500     28.908     0.0976     2.7696    349.167
   3993.000     22.929     0.1647     2.6546    886.860
   3993.500     19.256     0.1001     2.6370    256.197
   3994.000     21.883     0.0840     2.6935    222.311
   3994.500     29.513     0.0915     2.6060    736.392
   3995.000     33.528     0.1228     2.6694    497.170
   3995.500     13.917     0.1113     2.7413    753.506
   3996.000     31.656     0.1367     2.6546    796.685
   3996.500     18.062     0.0977     2.6528    754.636
   3997.000     40.088     0.0991     2.6662    255.664
   3997.500     23.923     0.2061     2.6039    686.720
   3998.000     38.453     0.1578     2.7691    197.013
   3998.500     32.751     0.1699     2.7596    687.445
   3999.000     19.780     0.1832     2.6418    369.228
   3999.500     27.030     0.1825     2.6765    309.917
   4000.000     27.103     0.1929     2.5898    282.513
   4000.500     23.935     0.0760     2.6088    712.262
