~VERSION INFORMATION
 VERS.                    2.0 : CWLS Log ASCII Standard - VERSION 2.0
 WRAP.                     NO : ONE LINE PER DEPTH STEP

~WELL INFORMATION
 WELL.              Well-Beta : WELL NAME
 FLD .                FIELD-A : FIELD NAME
 LOC .         SEC 12 T5N R6E : LOCATION
 CTRY.                    USA : COUNTRY
 SRVC.           SYNTH LOGGER : SERVICE COMPANY
 DATE.              2024-01-15 : LOG DATE
 UWI .       30-045-20130-00-00 : UNIQUE WELL ID

~CURVE INFORMATION
 DEPT.M                      : DEPTH
 GR  .GAPI                   : GAMMA RAY
 NPHI.V/V                    : NEUTRON POROSITY
 RHOB.G/CC                   : BULK DENSITY
 RT  .OHMM                   : TRUE RESISTIVITY

~PARAMETER INFORMATION
 STRT.M            2500.00 : START DEPTH
 STOP.M            4000.50 : STOP DEPTH
 STEP.M                  0.5 : STEP
 NULL.              -999.25 : NULL VALUE

~ASCII LOG DATA
# ...
   3143.500     96.643     0.3060     2.4464      2.368
   3144.000     91.669     0.3986     2.4082      4.115
   3144.500    104.443     0.3058     2.4927      3.474
   3145.000     93.259     0.3464     2.4847      5.105
   3145.500     85.026     0.3470     2.5035      1.302
   3146.000     90.020     0.2798     2.5379      3.643
   3146.500     97.036     0.3541     2.5265      6.257
   3147.000     97.841     0.3440     2.4440      3.293
   3147.500     76.460     0.3850     2.3938      2.860
   3148.000     89.885     0.3259     2.4456      8.460
   3148.500     98.407     0.3138     2.5404      7.491
   3149.000     85.128     0.3884     2.4544      4.103
   3149.500     80.701     0.3076     2.3945      5.553
   3150.000     92.517     0.3147     2.5417      2.611
   3150.500    106.816     0.3782     2.4437      3.309
   3151.000     91.725     0.3458     2.5053      4.219
   3151.500     78.617     0.3182     2.4838      2.899
   3152.000     86.904     0.3292     2.3960      8.683
   3152.500     93.571     0.3962     2.4768      6.534
   3153.000     94.214     0.3292     2.5438      7.330
   3153.500     90.140     0.2801     2.4498      3.522
   3154.000     99.553     0.3008     2.4157      6.645
   3154.500     94.567     0.3614     2.4836      2.225
   3155.000    100.414     0.3023     2.3775      7.461
   3155.500    110.125     0.3483     2.5385      3.773
   3156.000     94.559     0.3196     2.4903      6.634
   3156.500     90.087     0.2954     2.4726      6.560
   3157.000     83.517     0.3586     2.3982      6.272
   3157.500    101.708     0.3523     2.3764      3.804
   3158.000     85.089     0.3933     2.4417      5.813
   3158.500     98.369     0.3195     2.4929      6.477
   3159.000     89.836     0.3879     2.3746      8.030
   3159.500     90.976     0.3002     2.4175      6.035
   3160.000    103.945     0.3640     2.4387      3.033
   3160.500     91.485     0.2995     2.5055      6.475
   3161.000     89.867     0.3769     2.3988      2.647
   3161.500     80.854     0.3595     2.4895      5.245
   3162.000     97.216     0.3059     2.4475      1.761
   3162.500     83.522     0.3964     2.3977      4.155
   3163.000    112.766     0.2823     2.5207      5.730
   3163.500    100.694     0.3481     2.3903      6.273
   3164.000     86.268     0.3745     2.4465      5.126
   3164.500    107.297     0.2989     2.5458      8.833
   3165.000    103.849     0.2970     2.3779      6.812
   3165.500     82.829     0.2866     2.3735      1.066
   3166.000     97.183     0.3624     2.4252      3.900
   3166.500    110.405     0.3851     2.4796      1.189
   3167.000     96.130     0.3819     2.4229      4.625
   3167.500     95.949     0.3805     2.4132      5.503
   3168.000     91.122     0.3585     2.5329      1.096
   3168.500     94.938     0.3504     2.3898      7.064
   3169.000     77.296     0.3045     2.5158      5.170
   3169.500     82.090     0.2844     2.4635      7.623
   3170.000    105.761     0.3958     2.4628      0.883
   3170.500    100.780     0.3807     2.4922      9.236
   3171.000     86.010     0.3150     2.4157      7.018
   3171.500     99.084     0.2954     2.3843      5.928
   3172.000     81.685     0.3775     2.4576      5.916
   3172.500     92.667     0.3291     2.4878      1.398
   3173.000    105.113     0.3488     2.4438      5.262
   3173.500     84.802     0.4062     2.4040      4.411
   3174.000    108.986     0.3792     2.3959      2.424
   3174.500    106.382     0.3401     2.4142      2.690
   3175.000     85.968     0.2863     2.4610      6.746
   3175.500     99.807     0.2873     2.4029      2.223
   3176.000     89.398     0.3750     2.4142      3.722
   3176.500     82.664     0.3710     2.5421      3.000
   3177.000     98.873     0.3855     2.4977      0.500
   3177.500     89.990     0.3769     2.4467      7.851
   3178.000    103.350     0.3629     2.4198      6.386
   3178.500     83.173     0.3937     2.4699      8.164
   3179.000    101.355     0.3545     2.4771      3.767
   3179.500    102.881     0.3268     2.4187      5.222
   3180.000     82.380     0.2972     2.4770      5.336
   3180.500     83.286     0.3489     2.5001      5.651
   3181.000     76.740     0.3801     2.5005      0.783
   3181.500     77.250     0.3671     2.4735      2.998
   3182.000    103.190     0.3091     2.4366      5.834
   3182.500    108.508     0.3314     2.5101      2.833
   3183.000     97.712     0.3096     2.4355      1.703
   3183.500     78.072     0.3731     2.5380      1.669
   3184.000    101.129     0.3813     2.4292      4.012
   3184.500     80.588     0.3916     2.5145      2.430
   3185.000    104.346     0.3675     2.4408      7.621
   3185.500     97.254     0.3825     2.5371      7.297
   3186.000    103.303     0.3836     2.5254      4.869
   3186.500     92.749     0.3513     2.4958      5.905
   3187.000     80.337     0.3489     2.4456      2.074
   3187.500     97.065     0.3544     2.3913      3.823
   3188.000     93.009     0.2966     2.5304      3.203
   3188.500    101.849     0.3040     2.3803      3.472
   3189.000    100.932     0.3545     2.5231      3.528
   3189.500     92.077     0.2836     2.4383      4.792
   3190.000    104.976     0.3287     2.5221      4.981
   3190.500     80.028     0.3613     2.5255      3.345
   3191.000    104.809     0.2824     2.4771      0.500
   3191.500     78.323     0.3581     2.5547      0.708
   3192.000    103.591     0.2798     2.4350      2.298
   3192.500     90.198     0.3553     2.4732      6.669
   3193.000     91.860     0.3477     2.4006      7.828
   3193.500     79.420     0.3306     2.4616      2.888
   3194.000     99.850     0.3450     2.5189      7.034
   3194.500     99.000     0.3047     2.5193      4.830
   3195.000     88.293     0.3990     2.5457      4.060
   3195.500     93.253     0.3183     2.4458      2.407
   3196.000     95.957     0.3305     2.4344      1.539
   3196.500    100.264     0.2996     2.4771      4.144
   3197.000    104.726     0.3690     2.4506      1.394
   3197.500     82.909     0.3676     2.4035      0.963
   3198.000     83.696     0.3859     2.5230      1.222
   3198.500     97.530     0.3030     2.5250      4.487
   3199.000     84.593     0.2917     2.3662      3.428
   3199.500    104.081     0.3162     2.4357      5.339
   3200.000     97.126     0.3923     2.5407      2.055
   3200.500     31.518     0.1295     2.6392    368.872
   3201.000     24.322     0.1604     2.7347    395.789
   3201.500     38.023     0.1729     2.5991    176.366
   3202.000     22.342     0.1456     2.6759    239.527
   3202.500     36.091     0.1210     2.6564    550.639
   3203.000     15.510     0.0881     2.6419    655.094
   3203.500     38.950     0.0819     2.6692    468.315
   3204.000     13.794     0.1399     2.6766    450.915
   3204.500     37.635     0.1185     2.6073    892.282
   3205.000     27.315     0.1146     2.7148    540.338
   3205.500     34.990     0.1276     2.7460    893.371
   3206.000     40.239     0.1615     2.7372    784.108
   3206.500     35.942     0.1749     2.7409    572.593
   3207.000     25.417     0.1417     2.6109    836.132
   3207.500     26.534     0.0869     2.7336    162.119
   3208.000     36.478     0.1681     2.7669    373.161
   3208.500     38.585     0.1875     2.6169    727.067
   3209.000     27.722     0.1052     2.6567    332.917
   3209.500     17.050     0.1731     2.6626    698.841
   3210.000     32.497     0.1514     2.7258    687.881
   3210.500     25.920     0.1540     2.6679    672.576
   3211.000     19.929     0.1882     2.6110    780.728
   3211.500     37.502     0.0983     2.6933    301.790
   3212.000     22.024     0.1460     2.7443    137.193
   3212.500     32.233     0.1101     2.6546    298.247
   3213.000     16.615     0.1425     2.6017    268.798
   3213.500     38.386     0.1291     2.7527    391.639
   3214.000     35.746     0.0898     2.6274    849.381
   3214.500     20.650     0.1499     2.6466    746.127
