~VERSION INFORMATION
 VERS.                    2.0 : CWLS Log ASCII Standard - VERSION 2.0
 WRAP.                     NO : ONE LINE PER DEPTH STEP

~WELL INFORMATION
 WELL.              Well-Beta : WELL NAME
 FLD .                FIELD-A : FIELD NAME
 LOC .         SEC 12 T5N R6E : LOCATION
 CTRY.                    USA : COUNTRY
 SRVC.           SYNTH LOGGER : SERVICE COMPANY
 DATE.              2024-01-15 : LOG DATE
 UWI .       30-045-20130-00-00 : UNIQUE WELL ID

~CURVE INFORMATION
 DEPT.M                      : DEPTH
 GR  .GAPI                   : GAMMA RAY
 NPHI.V/V                    : NEUTRON POROSITY
 RHOB.G/CC                   : BULK DENSITY
 RT  .OHMM                   : TRUE RESISTIVITY

~PARAMETER INFORMATION
 STRT.M            2500.00 : START DEPTH
 STOP.M            4000.50 : STOP DEPTH
 STEP.M                  0.5 : STEP
 NULL.              -999.25 : NULL VALUE

~ASCII LOG DATA
# ...
   2857.500     33.932     0.1680     2.7472    199.977
   2858.000     20.901     0.1195     2.6233    673.145
   2858.500     24.703     0.1100     2.6306    323.069
   2859.000     29.303     0.1091     2.6975    272.612
   2859.500     25.517     0.1587     2.6752    849.637
   2860.000     37.269     0.1018     2.7003    456.564
   2860.500     23.985     0.1437     2.7651    752.985
   2861.000     21.243     0.1135     2.6325    452.349
   2861.500     28.224     0.1459     2.6956    316.925
   2862.000     32.019     0.1662     2.6728    248.919
   2862.500     27.288     0.1954     2.6898    282.437
   2863.000     40.529     0.1278     2.7648    196.418
   2863.500     23.111     0.1337     2.7112    651.245
   2864.000     39.719     0.1043     2.6441    406.223
   2864.500     33.180     0.1844     2.6497    160.281
   2865.000     22.585     0.0782     2.7830    125.065
   2865.500     33.345     0.1766     2.7416    260.342
   2866.000     40.732     0.1401     2.6719    552.908
   2866.500     35.575     0.1293     2.6636    152.740
   2867.000     35.311     0.1502     2.7115    182.711
   2867.500     19.572     0.1896     2.6234    885.501
   2868.000     20.540     0.1515     2.6169    752.590
   2868.500     24.159     0.1805     2.6086    644.806
   2869.000     31.160     0.1055     2.7430    891.775
   2869.500     28.769     0.1870     2.6143    572.923
   2870.000     25.726     0.1516     2.6572    572.485
   2870.500     20.859     0.1783     2.6889    151.408
   2871.000     20.218     0.0820     2.6083    873.299
   2871.500     31.424     0.1163     2.6714    311.310
   2872.000     19.959     0.1322     2.6885    206.996
   2872.500     16.592     0.0957     2.6016    487.309
   2873.000     19.047     0.0860     2.6704    851.123
   2873.500     15.586     0.1085     2.6803    231.156
   2874.000     33.658     0.1387     2.6164    437.150
   2874.500     20.574     0.1825     2.6659    792.881
   2875.000     18.813     0.1777     2.7578    747.542
   2875.500     21.717     0.1725     2.5951    554.581
   2876.000     39.358     0.1798     2.6397    653.891
   2876.500     30.850     0.0932     2.6708    486.599
   2877.000     35.084     0.1269     2.6121    821.674
   2877.500     37.739     0.1615     2.7040    621.059
   2878.000     36.479     0.1520     2.7865    359.316
   2878.500     35.619     0.1756     2.6746    623.300
   2879.000     22.985     0.1645     2.7007    348.265
   2879.500     28.995     0.1403     2.7443    224.518
   2880.000     21.391     0.1773     2.7444    613.876
   2880.500     23.555     0.1816     2.6712    456.047
   2881.000     27.565     0.1741     2.6005    428.193
   2881.500     21.592     0.1568     2.7884    437.965
   2882.000     33.990     0.1299     2.6377    572.887
   2882.500     27.734     0.1664     2.7490     89.118
   2883.000     38.839     0.1765     2.6747    784.691
   2883.500     18.579     0.1879     2.7485    416.534
   2884.000     21.759     0.1958     2.6591    434.428
   2884.500     25.823     0.1037     2.6291    530.806
   2885.000     31.296     0.1443     2.6545    120.686
   2885.500     28.600     0.1051     2.7167    647.295
   2886.000     37.991     0.1234     2.5908    688.144
   2886.500     36.105     0.0839     2.6684    824.352
   2887.000     32.556     0.1512     2.7310    576.572
   2887.500     26.467     0.1379     2.6065    209.223
   2888.000     24.776     0.1995     2.6062    197.106
   2888.500     31.624     0.1122     2.7074    895.138
   2889.000     34.230     0.1170     2.6377    385.659
   2889.500     22.218     0.1623     2.6195    793.488
   2890.000     37.146     0.1031     2.7343    674.788
   2890.500     21.815     0.1943     2.6302    681.125
   2891.000     23.887     0.1532     2.7078    339.698
   2891.500     37.751     0.1775     2.7461    205.179
   2892.000     33.052     0.1327     2.6164    833.447
   2892.500     35.054     0.1348     2.7261    491.765
   2893.000     36.184     0.0853     2.6359    429.943
   2893.500     28.733     0.1435     2.6666    504.713
   2894.000     25.303     0.1463     2.6648    489.091
   2894.500     29.822     0.1840     2.6370     91.217
   2895.000     24.542     0.1903     2.6194    313.830
   2895.500     17.576     0.0997     2.7321    856.952
   2896.000     19.194     0.1694     2.6373    683.979
   2896.500     21.010     0.0990     2.6563    137.888
   2897.000     40.446     0.1317     2.6309    770.406
   2897.500     18.711     0.0935     2.6915    777.104
   2898.000     31.114     0.1460     2.7379    315.004
   2898.500     27.528     0.1193     2.7396    275.341
   2899.000     18.553     0.1917     2.6133    885.261
   2899.500     27.979     0.1342     2.6881    893.634
   2900.000     21.731     0.1384     2.6348    688.953
   2900.500     30.396     0.1029     2.6169    553.910
   2901.000     30.612     0.1386     2.6924    577.480
   2901.500     36.778     0.1077     2.6341    299.437
   2902.000     31.519     0.1020     2.6064    313.348
   2902.500     38.230     0.1414     2.7216    357.134
   2903.000     19.448     0.1977     2.6625    196.147
   2903.500     39.169     0.1679     2.7412    534.325
   2904.000     21.220     0.1011     2.5982    702.351
   2904.500     23.680     0.1716     2.6630    306.223
   2905.000     32.998     0.1890     2.7589    891.398
   2905.500     31.059     0.1633     2.7487    555.825
   2906.000     30.027     0.0966     2.6305    135.967
   2906.500     33.789     0.2064     2.6745    650.639
   2907.000     22.734     0.1256     2.6938    423.340
   2907.500     38.226     0.1771     2.6340    305.682
   2908.000     20.892     0.0867     2.7546    720.725
   2908.500     20.305     0.1758     2.7604    703.542
   2909.000     24.085     0.1816     2.7382    445.441
   2909.500     36.541     0.0949     2.6205    250.626
   2910.000     21.637     0.0747     2.6203    536.669
   2910.500     33.473     0.1270     2.7690    186.011
   2911.000     37.847     0.1967     2.7697    384.867
   2911.500     40.847     0.1885     2.7124    621.398
   2912.000     34.298     0.1883     2.7366    611.826
   2912.500     33.713     0.1331     2.5995    678.072
   2913.000     24.296     0.2025     2.6357    496.600
   2913.500     22.756     0.1969     2.7021    851.634
   2914.000     36.311     0.1012     2.6052    294.333
   2914.500     37.880     0.1636     2.6224    196.411
   2915.000     20.634     0.1654     2.7523    101.612
   2915.500     36.640     0.1930     2.6536    289.690
   2916.000     29.969     0.1369     2.6838    425.123
   2916.500     27.194     0.1826     2.7456    555.853
   2917.000     28.296     0.1405     2.6505    637.189
   2917.500     43.554     0.1868     2.7103    507.106
   2918.000     22.590     0.1602     2.5990    472.619
   2918.500     15.298     0.1656     2.6325    569.335
   2919.000     28.092     0.1907     2.6619    252.855
   2919.500     29.100     0.1487     2.6356    100.522
   2920.000     28.557     0.1101     2.6419    795.056
   2920.500     35.823     0.1264     2.6758    619.298
   2921.000     15.487     0.1776     2.6045    109.431
   2921.500     37.322     0.1503     2.6117    234.107
   2922.000     31.354     0.1285     2.7303    862.657
   2922.500     14.934     0.0857     2.6219    869.809
   2923.000     39.048     0.0862     2.5762    106.196
   2923.500     14.249     0.1836     2.7181    533.136
   2924.000     32.279     0.1573     2.6547    396.834
   2924.500     28.008     0.1628     2.7353    797.379
   2925.000     23.425     0.1938     2.6345    178.677
   2925.500     28.493     0.1625     2.6504    613.394
   2926.000     22.781     0.1872     2.6234    505.907
   2926.500     19.265     0.1765     2.7717    869.129
   2927.000     26.925     0.1751     2.7762    294.701
   2927.500     33.962     0.1226     2.7048    452.672
   2928.000     40.544     0.1390     2.6312    612.131
   2928.500     32.543     0.1863     2.6633    177.869
