~VERSION INFORMATION
 VERS.                    2.0 : CWLS Log ASCII Standard - VERSION 2.0
 WRAP.                     NO : ONE LINE PER DEPTH STEP

~WELL INFORMATION
 WELL.              Well-Alpha : WELL NAME
 FLD .                FIELD-A : FIELD NAME
 LOC .         SEC 12 T5N R6E : LOCATION
 CTRY.                    USA : COUNTRY
 SRVC.           SYNTH LOGGER : SERVICE COMPANY
 DATE.              2024-01-15 : LOG DATE
 UWI .       30-045-20130-00-00 : UNIQUE WELL ID

~CURVE INFORMATION
 DEPT.M                      : DEPTH
 GR  .GAPI                   : GAMMA RAY
 NPHI.V/V                    : NEUTRON POROSITY
 RHOB.G/CC                   : BULK DENSITY
 RT  .OHMM                   : TRUE RESISTIVITY

~PARAMETER INFORMATION
 STRT.M            1500.00 : START DEPTH
 STOP.M            3000.50 : STOP DEPTH
 STEP.M                  0.5 : STEP
 NULL.              -999.25 : NULL VALUE

~ASCII LOG DATA
# ...
   2930.000    116.870     0.3192     2.5014      3.050
   2930.500     90.922     0.2996     2.5556      7.609
   2931.000    115.663     0.2887     2.6230     12.553
   2931.500    103.717     0.3607     2.5551      7.043
   2932.000     97.740     0.3064     2.6197      7.780
   2932.500    107.117     0.3355     2.6313      2.627
   2933.000    102.249     0.3504     2.4760      2.841
   2933.500    110.962     0.3303     2.4675      7.043
   2934.000     93.110     0.3655     2.5575     11.264
   2934.500     93.853     0.3151     2.5635     10.136
   2935.000    115.613     0.3144     2.5295      5.231
   2935.500    121.176     0.3700     2.5155      6.931
   2936.000    112.431     0.3523     2.5878      7.424
   2936.500     98.714     0.3068     2.4529      8.778
   2937.000    110.993     0.2802     2.6447      9.048
   2937.500     98.470     0.3012     2.4883     10.058
   2938.000     98.796     0.3105     2.6239      2.222
   2938.500     88.495     0.3762     2.4815     11.522
   2939.000    103.558     0.3368     2.5083      2.389
   2939.500     86.616     0.3138     2.5074      6.499
   2940.000     91.857     0.3692     2.6571     11.680
   2940.500    110.391     0.3354     2.4554      7.541
   2941.000     86.835     0.3070     2.5822      2.543
   2941.500     81.822     0.3768     2.6253      4.156
   2942.000     83.063     0.3614     2.5901      7.467
   2942.500    121.558     0.3635     2.5221      2.544
   2943.000     99.045     0.3411     2.6473      5.751
   2943.500     94.329     0.3616     2.6379      4.648
   2944.000    111.006     0.3017     2.5242      9.962
   2944.500    113.740     0.3377     2.5756      3.551
   2945.000     94.465     0.3919     2.6429      8.627
   2945.500    109.201     0.3043     2.6611      6.581
   2946.000    112.500     0.3515     2.5527      7.185
   2946.500    108.124     0.3375     2.6092      3.728
   2947.000     85.506     0.2821     2.5104      8.262
   2947.500    119.142     0.3584     2.5057      8.963
   2948.000    100.854     0.3054     2.4791      1.696
   2948.500     91.518     0.3453     2.4954      9.548
   2949.000     99.601     0.2997     2.5898     10.853
   2949.500     82.636     0.3754     2.5528      1.891
   2950.000     80.633     0.3056     2.5007      8.151
   2950.500    110.633     0.2909     2.5236      8.455
   2951.000     81.724     0.2944     2.5244      1.303
   2951.500     93.976     0.3634     2.6416      4.834
   2952.000    102.402     0.3528     2.6235     10.661
   2952.500     82.966     0.3615     2.5415      7.733
   2953.000    121.291     0.3299     2.6322     12.364
   2953.500     87.661     0.3284     2.5048      7.971
   2954.000     94.160     0.2956     2.5855      2.420
   2954.500     92.477     0.3393     2.6504      2.984
   2955.000     92.749     0.3105     2.5189      9.475
   2955.500     85.631     0.3776     2.5984      7.020
   2956.000    112.250     0.3484     2.5032      2.713
   2956.500    119.635     0.3272     2.4957      8.224
   2957.000     93.614     0.2939     2.5470     10.270
   2957.500    107.729     0.3541     2.6485      9.281
   2958.000    107.860     0.2939     2.5588      4.315
   2958.500    113.858     0.2999     2.6412      4.030
   2959.000     98.429     0.2974     2.6255     11.606
   2959.500     93.769     0.3293     2.5059     10.716
   2960.000     90.761     0.3610     2.5384      5.390
   2960.500    106.318     0.3072     2.5903      9.438
   2961.000    111.989     0.2890     2.5413      3.523
   2961.500     88.334     0.3283     2.4847      3.746
   2962.000     96.163     0.3597     2.6509      2.268
   2962.500    116.360     0.3128     2.6181      2.857
   2963.000    110.599     0.3032     2.5391     10.972
   2963.500    122.868     0.3726     2.5794      7.375
   2964.000    108.026     0.3837     2.4580      4.461
   2964.500     98.332     0.3843     2.5589     10.545
   2965.000    105.103     0.3616     2.6254     11.044
   2965.500    109.001     0.3000     2.6320      2.811
   2966.000     82.249     0.3013     2.5132      8.316
   2966.500    101.495     0.3148     2.5554      9.627
   2967.000    108.483     0.3113     2.6003      9.820
   2967.500     85.740     0.3708     2.5145     10.129
   2968.000    111.676     0.3590     2.4740      2.981
   2968.500    106.509     0.3612     2.5470      5.023
   2969.000    115.495     0.2945     2.5716     10.053
   2969.500     80.382     0.3696     2.4727     12.094
   2970.000     89.082     0.3583     2.4703      4.455
   2970.500    103.873     0.3022     2.4907      2.220
   2971.000     91.591     0.3713     2.5210     10.445
   2971.500    110.122     0.3008     2.5549      5.709
   2972.000    110.428     0.2780     2.4988      4.056
   2972.500     84.706     0.3500     2.5258      5.664
   2973.000    101.351     0.3387     2.6198      6.516
   2973.500    100.846     0.2936     2.4638      5.176
   2974.000     96.178     0.3087     2.5475      6.543
   2974.500    117.072     0.3828     2.6441      3.070
   2975.000    116.393     0.3501     2.5729     12.379
   2975.500    112.972     0.3503     2.5930     11.728
   2976.000    109.986     0.2969     2.5346     11.219
   2976.500     98.925     0.2908     2.4582     10.592
   2977.000    118.089     0.3042     2.5874      9.100
   2977.500    105.582     0.3104     2.5745      3.661
   2978.000    109.519     0.2993     2.4980      2.098
   2978.500    113.005     0.3010     2.5528      2.540
   2979.000     91.983     0.3355     2.6330      5.066
   2979.500    110.830     0.3128     2.4778      6.737
   2980.000     87.120     0.3585     2.5434     11.934
   2980.500     90.070     0.2975     2.5504      6.968
   2981.000     91.078     0.3137     2.6204      7.271
   2981.500    119.851     0.2773     2.5964      8.990
   2982.000    112.524     0.3252     2.6030      3.809
   2982.500    110.174     0.2852     2.5183     10.735
   2983.000    107.174     0.3842     2.4794      7.564
   2983.500    103.389     0.3556     2.5211      4.552
   2984.000    116.360     0.3361     2.5631     11.010
   2984.500    100.621     0.2844     2.5942      8.019
   2985.000     92.151     0.3337     2.6235      6.845
   2985.500     85.615     0.3465     2.5452      7.635
   2986.000    109.756     0.3021     2.6024      9.900
   2986.500    111.144     0.3373     2.5714      2.747
   2987.000     96.299     0.3642     2.4827     10.018
   2987.500     78.543     0.3575     2.5356     11.194
   2988.000    113.154     0.3603     2.5717      7.249
   2988.500     78.912     0.3694     2.6465      8.731
   2989.000    110.049     0.3845     2.5206     10.363
   2989.500    121.353     0.3182     2.6406      4.842
   2990.000     94.623     0.3471     2.5494     11.248
   2990.500     91.052     0.3633     2.5022      8.006
   2991.000    106.548     0.3515     2.4842      5.808
   2991.500    112.179     0.3823     2.4800      8.206
   2992.000    101.922     0.2654     2.5499      6.786
   2992.500    122.315     0.3142     2.4500      3.336
   2993.000     80.059     0.3048     2.5455      9.272
   2993.500    101.861     0.3168     2.6599      7.576
   2994.000    106.395     0.3005     2.5880      9.264
   2994.500    112.024     0.3508     2.6090      2.459
   2995.000     87.227     0.2882     2.4778      7.338
   2995.500    112.044     0.3476     2.5448      9.887
   2996.000     96.444     0.3465     2.5156     12.272
   2996.500     98.181     0.3092     2.6449     11.342
   2997.000     80.990     0.2946     2.4948     10.487
   2997.500    114.320     0.3444     2.5398      4.236
   2998.000     88.946     0.3517     2.5659     10.106
   2998.500     96.810     0.3741     2.5515      3.924
   2999.000     90.876     0.3672     2.6255      3.124
   2999.500    111.991     0.3689     2.4910      2.907
   3000.000    109.489     0.3361     2.5152      9.972
   3000.500    113.598     0.3731     2.6131      2.692
