~VERSION INFORMATION
 VERS.                    2.0 : CWLS Log ASCII Standard - VERSION 2.0
 WRAP.                     NO : ONE LINE PER DEPTH STEP

~WELL INFORMATION
 WELL.              Well-Alpha : WELL NAME
 FLD .                FIELD-A : FIELD NAME
 LOC .         SEC 12 T5N R6E : LOCATION
 CTRY.                    USA : COUNTRY
 SRVC.           SYNTH LOGGER : SERVICE COMPANY
 DATE.              2024-01-15 : LOG DATE
 UWI .       30-045-20130-00-00 : UNIQUE WELL ID

~CURVE INFORMATION
 DEPT.M                      : DEPTH
 GR  .GAPI                   : GAMMA RAY
 NPHI.V/V                    : NEUTRON POROSITY
 RHOB.G/CC                   : BULK DENSITY
 RT  .OHMM                   : TRUE RESISTIVITY

~PARAMETER INFORMATION
 STRT.M            1500.00 : START DEPTH
 STOP.M            3000.50 : STOP DEPTH
 STEP.M                  0.5 : STEP
 NULL.              -999.25 : NULL VALUE

~ASCII LOG DATA
# ...
   2715.500    110.901     0.2876     2.6111      7.426
   2716.000    119.374     0.3008     2.5244      5.852
   2716.500     89.931     0.2841     2.6072      4.129
   2717.000    119.039     0.3243     2.4614      5.585
   2717.500     93.031     0.3619     2.5586     11.154
   2718.000     97.101     0.2835     2.6310      9.380
   2718.500     97.688     0.3514     2.4990      2.617
   2719.000     99.977     0.3771     2.4796      6.413
   2719.500     88.600     0.3080     2.5182      5.640
   2720.000    101.385     0.3544     2.5953     11.633
   2720.500    104.680     0.3800     2.5531     11.560
   2721.000    114.853     0.3780     2.5441      5.197
   2721.500    112.879     0.3132     2.5846      5.352
   2722.000     94.577     0.2940     2.4860      8.571
   2722.500     93.989     0.2906     2.6151      5.525
   2723.000     90.822     0.3409     2.4913      3.507
   2723.500     88.789     0.3514     2.5420      7.722
   2724.000     81.626     0.3505     2.5810      5.624
   2724.500     91.929     0.3184     2.6125      7.718
   2725.000     93.131     0.2907     2.6082      5.694
   2725.500    119.296     0.3417     2.6113      8.199
   2726.000     99.421     0.3340     2.5192      8.262
   2726.500     95.265     0.3559     2.4893      6.345
   2727.000    104.191     0.3262     2.4919      8.896
   2727.500     84.917     0.3132     2.6144      7.354
   2728.000    101.001     0.3070     2.6007      2.007
   2728.500    103.813     0.3051     2.6461      2.843
   2729.000     99.218     0.3095     2.4729      4.381
   2729.500     97.608     0.2878     2.5459      2.087
   2730.000    119.907     0.3274     2.5945      8.333
   2730.500    112.444     0.2761     2.5783      5.122
   2731.000    105.304     0.2975     2.5859      1.725
   2731.500    101.946     0.3508     2.6116      9.864
   2732.000    106.540     0.3145     2.5326      8.192
   2732.500     88.355     0.3371     2.4662      6.404
   2733.000     95.995     0.3580     2.5016      4.420
   2733.500     79.482     0.3431     2.4509      1.766
   2734.000     98.562     0.3772     2.5167      6.366
   2734.500    103.661     0.2806     2.4766      9.643
   2735.000     87.557     0.3574     2.5239      3.481
   2735.500    118.496     0.3775     2.5558      8.267
   2736.000    114.505     0.3710     2.6160     11.424
   2736.500    106.518     0.2962     2.6299      8.318
   2737.000    101.166     0.3118     2.5053      6.488
   2737.500    115.146     0.3026     2.4786      9.409
   2738.000     89.214     0.3433     2.4788     10.575
   2738.500    110.709     0.3503     2.6486      7.918
   2739.000     84.892     0.3135     2.5721     10.277
   2739.500    109.268     0.3349     2.5097      7.225
   2740.000     92.255     0.3514     2.6146     10.960
   2740.500    115.880     0.3285     2.5378     11.739
   2741.000    120.738     0.3637     2.6484      6.858
   2741.500     88.175     0.3539     2.4876      7.015
   2742.000     99.210     0.2878     2.5466      7.368
   2742.500    118.299     0.3394     2.5530      9.346
   2743.000     99.746     0.2990     2.6293      9.592
   2743.500    114.320     0.3407     2.6183      1.704
   2744.000    105.456     0.3743     2.5612      8.736
   2744.500     96.666     0.3586     2.4869     10.163
   2745.000     90.839     0.3247     2.5211      8.655
   2745.500     85.205     0.3070     2.6496      8.436
   2746.000    113.139     0.3063     2.5827      1.473
   2746.500     96.625     0.3387     2.5957      6.176
   2747.000     99.812     0.2924     2.5330      9.950
   2747.500    100.779     0.3248     2.5590     11.328
   2748.000    103.241     0.2703     2.5246      3.786
   2748.500    117.260     0.3090     2.5930      8.441
   2749.000    115.370     0.3017     2.6176     10.374
   2749.500     95.509     0.3831     2.5351      8.970
   2750.000    116.299     0.3542     2.5509      7.025
   2750.500    111.708     0.3281     2.5124      1.516
   2751.000    106.486     0.2818     2.4957      8.532
   2751.500    115.798     0.3323     2.6359      8.755
   2752.000     90.163     0.2991     2.5061      9.409
   2752.500     86.395     0.3348     2.6098      9.536
   2753.000    110.795     0.3723     2.6055      6.586
   2753.500     96.975     0.3507     2.6266     11.897
   2754.000    113.666     0.3437     2.6433      9.484
   2754.500    112.484     0.3384     2.5688      6.939
   2755.000     81.949     0.3738     2.6299     10.996
   2755.500    117.085     0.3678     2.4826     10.139
   2756.000     97.151     0.3313     2.5738     10.572
   2756.500    100.902     0.3081     2.6019      6.760
   2757.000    105.562     0.3256     2.4947      7.145
   2757.500    117.031     0.2944     2.6079      4.828
   2758.000     79.354     0.3444     2.6143      4.329
   2758.500    100.391     0.3315     2.6165      6.897
   2759.000    104.335     0.2939     2.5252      6.905
   2759.500    108.925     0.3013     2.5922      3.901
   2760.000    110.472     0.3361     2.4997     11.821
   2760.500     84.483     0.3797     2.5943      6.940
   2761.000     90.521     0.3346     2.5574      7.607
   2761.500     95.800     0.3530     2.5659      6.405
   2762.000    112.504     0.3245     2.5262      2.179
   2762.500     92.641     0.3421     2.4896     10.396
   2763.000     88.505     0.3283     2.4828      4.965
   2763.500    113.521     0.3368     2.4711      7.991
   2764.000     82.714     0.2823     2.5733      8.430
   2764.500    124.053     0.3273     2.6118      6.993
   2765.000    109.641     0.3165     2.4472      7.174
   2765.500    106.061     0.3090     2.4464      3.419
   2766.000     92.687     0.3757     2.5304      4.611
   2766.500     79.639     0.3025     2.6038      7.363
   2767.000    107.346     0.3072     2.4936      9.344
   2767.500    113.611     0.3324     2.4982      5.591
   2768.000    109.321     0.3670     2.4827      3.749
   2768.500     86.731     0.3261     2.5412      2.906
   2769.000    110.250     0.3577     2.5067      8.337
   2769.500    108.515     0.3688     2.5277      6.664
   2770.000    105.188     0.3120     2.5812      2.666
   2770.500    109.169     0.3109     2.5774      8.226
   2771.000    110.404     0.3164     2.4718      3.907
   2771.500    101.801     0.3636     2.5866      6.572
   2772.000     83.122     0.2883     2.5469      4.448
   2772.500    102.353     0.3087     2.6294     11.413
   2773.000     82.035     0.3481     2.5038      4.363
   2773.500     94.787     0.3369     2.6070      6.060
   2774.000     93.922     0.3201     2.6000     11.629
   2774.500     82.701     0.3282     2.4812      5.808
   2775.000     96.311     0.3017     2.6477      8.616
   2775.500     88.445     0.3281     2.5598      4.656
   2776.000    112.900     0.3270     2.6024      3.213
   2776.500    118.188     0.3690     2.4905      7.969
   2777.000     81.806     0.3102     2.4923     11.420
   2777.500    117.451     0.3714     2.5705      6.522
   2778.000    102.161     0.3456     2.5198      8.076
   2778.500     91.353     0.2841     2.5365      7.531
   2779.000     82.750     0.3551     2.5131      5.845
   2779.500     99.974     0.2871     2.5855      7.719
   2780.000    110.599     0.3744     2.5557      4.354
   2780.500    108.134     0.3768     2.4746      5.681
   2781.000     77.970     0.3111     2.5773      5.159
   2781.500     84.014     0.3094     2.5176     10.741
   2782.000    100.818     0.3143     2.5168      6.620
   2782.500     90.708     0.3147     2.4773      8.011
   2783.000     90.043     0.3191     2.4904      4.235
   2783.500     92.943     0.3028     2.4958      4.523
   2784.000    114.700     0.3376     2.6307      7.487
   2784.500    116.640     0.2928     2.5484      9.753
   2785.000     92.597     0.3582     2.4659      5.932
   2785.500    116.779     0.3618     2.4696      4.920
   2786.000     93.117     0.3273     2.4606     10.328
   2786.500     98.366     0.3724     2.5610      3.147
