~VERSION INFORMATION
 VERS.                    2.0 : CWLS Log ASCII Standard - VERSION 2.0
 WRAP.                     NO : ONE LINE PER DEPTH STEP

~WELL INFORMATION
 WELL.              Well-Beta : WELL NAME
 FLD .                FIELD-A : FIELD NAME
 LOC .         SEC 12 T5N R6E : LOCATION
 CTRY.                    USA : COUNTRY
 SRVC.           SYNTH LOGGER : SERVICE COMPANY
 DATE.              2024-01-15 : LOG DATE
 UWI .       30-045-20130-00-00 : UNIQUE WELL ID

~CURVE INFORMATION
 DEPT.M                      : DEPTH
 GR  .GAPI                   : GAMMA RAY
 NPHI.V/V                    : NEUTRON POROSITY
 RHOB.G/CC                   : BULK DENSITY
 RT  .OHMM                   : TRUE RESISTIVITY

~PARAMETER INFORMATION
 STRT.M            2500.00 : START DEPTH
 STOP.M            4000.50 : STOP DEPTH
 STEP.M                  0.5 : STEP
 NULL.              -999.25 : NULL VALUE

~ASCII LOG DATA
# ...
   3644.000     36.566     0.0863     2.7451    517.006
   3644.500     17.447     0.1320     2.6462    281.094
   3645.000     16.424     0.1347     2.6803    428.285
   3645.500     17.276     0.0848     2.6960    812.813
   3646.000     26.232     0.0938     2.7303    724.311
   3646.500     18.124     0.0805     2.6134    728.302
   3647.000     38.955     0.0974     2.6059    806.943
   3647.500     33.221     0.1337     2.7282    766.888
   3648.000     39.912     0.1125     2.6214    854.881
   3648.500     35.110     0.1987     2.6849    326.043
   3649.000     24.606     0.2015     2.6765    469.324
   3649.500     15.569     0.1611     2.7841    156.515
   3650.000     23.591     0.1918     2.6715    602.456
   3650.500     22.615     0.1613     2.7367    440.987
   3651.000     29.079     0.1996     2.6778    492.345
   3651.500     28.516     0.1177     2.6580     87.036
   3652.000     26.232     0.0878     2.7347    207.092
   3652.500     24.266     0.1556     2.6180    288.976
   3653.000     34.495     0.1112     2.6323    703.007
   3653.500     30.465     0.1823     2.7408    681.656
   3654.000     25.885     0.1014     2.6812    468.004
   3654.500     24.468     0.0831     2.7578    529.785
   3655.000     36.008     0.1853     2.6201    297.079
   3655.500     21.650     0.1602     2.7039    111.277
   3656.000     38.434     0.1052     2.6737    279.585
   3656.500     36.844     0.1501     2.6361    158.543
   3657.000     22.895     0.1404     2.6006    291.363
   3657.500     16.468     0.1483     2.7424    396.016
   3658.000     22.260     0.0831     2.6455    146.613
   3658.500     29.342     0.1749     2.6162    133.097
   3659.000     29.141     0.1194     2.6138    606.508
   3659.500     27.447     0.0992     2.7250    553.582
   3660.000     28.353     0.1350     2.7392    613.592
   3660.500     22.260     0.1874     2.7411    246.256
   3661.000     31.312     0.1314     2.6240    748.772
   3661.500     23.446     0.1585     2.6595    199.602
   3662.000     25.177     0.1542     2.7762    289.706
   3662.500     36.119     0.1778     2.6248    580.045
   3663.000     14.938     0.1877     2.6276    771.422
   3663.500     30.274     0.1576     2.6749    828.213
   3664.000     37.980     0.1750     2.7354    600.498
   3664.500     27.951     0.1052     2.6510    762.138
   3665.000     22.736     0.1943     2.7590    869.956
   3665.500     31.364     0.1941     2.7293    758.108
   3666.000     22.762     0.1526     2.6237    169.808
   3666.500     30.346     0.1235     2.6555    176.427
   3667.000     19.998     0.1810     2.7366    422.321
   3667.500     26.792     0.0947     2.7071    464.578
   3668.000     17.484     0.1060     2.6993    429.799
   3668.500     38.343     0.1845     2.6883    445.772
   3669.000     35.185     0.0981     2.7739    776.664
   3669.500     25.384     0.0955     2.6320    207.361
   3670.000     35.871     0.0896     2.7665    376.475
   3670.500     22.699     0.1429     2.6438    896.773
   3671.000     38.753     0.1327     2.7597    774.006
   3671.500     17.011     0.1769     2.7651    585.099
   3672.000     14.783     0.2018     2.6942    308.334
   3672.500     31.442     0.1067     2.7055    755.646
   3673.000     24.945     0.1940     2.7706    835.658
   3673.500     24.312     0.0869     2.7069    754.203
   3674.000     22.490     0.1036     2.7070    772.981
   3674.500     41.218     0.1100     2.7707    429.031
   3675.000     16.465     0.1296     2.7551    864.659
   3675.500     29.818     0.1258     2.6323    287.825
   3676.000     22.252     0.1077     2.7639    311.679
   3676.500     30.272     0.2008     2.7265    163.815
   3677.000     33.906     0.1830     2.7096    330.700
   3677.500     33.696     0.1176     2.6728    727.659
   3678.000     12.781     0.0913     2.7175    578.374
   3678.500     26.955     0.1703     2.7561    825.170
   3679.000     21.179     0.1929     2.7413    210.874
   3679.500     20.961     0.1830     2.7452    307.862
   3680.000     17.177     0.1702     2.6485    353.977
   3680.500     16.484     0.0960     2.6975    216.389
   3681.000     17.138     0.0816     2.7245    423.311
   3681.500     37.671     0.1156     2.6321    627.872
   3682.000     28.619     0.1228     2.6692    619.710
   3682.500     14.372     0.0910     2.6294    325.887
   3683.000     37.485     0.1085     2.7722    771.078
   3683.500     31.576     0.1366     2.6431    454.325
   3684.000     31.680     0.1626     2.7439    450.460
   3684.500     15.686     0.1002     2.6144    413.719
   3685.000     26.190     0.1927     2.6120    703.735
   3685.500     22.508     0.1580     2.6269    520.072
   3686.000     17.737     0.1284     2.6967    107.775
   3686.500     28.317     0.1171     2.7074    394.185
   3687.000     33.938     0.1583     2.7845    684.302
   3687.500     36.233     0.1451     2.6409    323.498
   3688.000     30.848     0.1020     2.7242    510.856
   3688.500     23.550     0.1570     2.6701    333.543
   3689.000     32.272     0.1153     2.7432    275.411
   3689.500     33.218     0.1132     2.6255    770.338
   3690.000     19.232     0.0865     2.7494    726.456
   3690.500     39.765     0.1742     2.7674    876.459
   3691.000     26.056     0.1520     2.7603    278.364
   3691.500     26.648     0.1731     2.6741    250.925
   3692.000     30.407     0.1405     2.6125    121.135
   3692.500     31.906     0.1233     2.5989    164.417
   3693.000     22.403     0.0999     2.7363    702.430
   3693.500     19.967     0.0843     2.6740    108.570
   3694.000     29.624     0.1833     2.7143    199.099
   3694.500     28.591     0.1611     2.7261    287.513
   3695.000     18.552     0.1447     2.6510    229.811
   3695.500     31.228     0.0920     2.6265    374.069
   3696.000     31.602     0.1023     2.6208    575.685
   3696.500     20.446     0.1602     2.7683    672.033
   3697.000     22.783     0.1490     2.7281    214.207
   3697.500     35.679     0.1170     2.5993    649.425
   3698.000     35.077     0.1001     2.7127    807.054
   3698.500     38.106     0.1630     2.6801    816.074
   3699.000     27.295     0.1063     2.6174    229.855
   3699.500     34.693     0.1212     2.6526    456.272
   3700.000     23.398     0.1388     2.5956    804.391
   3700.500     29.847     0.0960     2.7360    510.278
   3701.000     14.806     0.1000     2.6265     99.080
   3701.500     28.644     0.1694     2.7159    574.157
   3702.000     38.019     0.1769     2.7302    472.291
   3702.500     23.642     0.1172     2.7504    574.396
   3703.000     18.264     0.0917     2.7281    565.312
   3703.500     20.854     0.1564     2.6752    548.919
   3704.000     37.350     0.1660     2.6163    703.330
   3704.500     25.855     0.1762     2.6651    331.659
   3705.000     32.910     0.1488     2.7426    685.266
   3705.500     20.282     0.1164     2.6492    367.215
   3706.000     18.841     0.1469     2.7210    257.890
   3706.500     20.595     0.1697     2.7283    654.744
   3707.000     24.612     0.1784     2.6350    703.879
   3707.500     33.459     0.2005     2.7452    815.701
   3708.000     38.708     0.1782     2.6740    448.630
   3708.500     32.769     0.2016     2.6180    834.811
   3709.000     16.626     0.1516     2.6854    883.872
   3709.500     36.520     0.1588     2.7474    874.915
   3710.000     24.594     0.0912     2.6716    282.234
   3710.500     24.323     0.0787     2.6515    621.673
   3711.000     30.966     0.1687     2.6482    708.022
   3711.500     30.143     0.1392     2.7191    801.846
   3712.000     29.882     0.0895     2.6319    653.922
   3712.500     29.851     0.1132     2.6277    241.666
   3713.000     15.733     0.1305     2.7616    242.315
   3713.500     28.887     0.1465     2.7795    125.044
   3714.000     36.069     0.1491     2.7005    692.145
   3714.500     20.874     0.1371     2.6934    397.402
   3715.000     29.821     0.1236     2.7738    354.553
