~VERSION INFORMATION
 VERS.                    2.0 : CWLS Log ASCII Standard - VERSION 2.0
 WRAP.                     NO : ONE LINE PER DEPTH STEP

~WELL INFORMATION
 WELL.              Well-Alpha : WELL NAME
 FLD .                FIELD-A : FIELD NAME
 LOC .         SEC 12 T5N R6E : LOCATION
 CTRY.                    USA : COUNTRY
 SRVC.           SYNTH LOGGER : SERVICE COMPANY
 DATE.              2024-01-15 : LOG DATE
 UWI .       30-045-20130-00-00 : UNIQUE WELL ID

~CURVE INFORMATION
 DEPT.M                      : DEPTH
 GR  .GAPI                   : GAMMA RAY
 NPHI.V/V                    : NEUTRON POROSITY
 RHOB.G/CC                   : BULK DENSITY
 RT  .OHMM                   : TRUE RESISTIVITY

~PARAMETER INFORMATION
 STRT.M            1500.00 : START DEPTH
 STOP.M            3000.50 : STOP DEPTH
 STEP.M                  0.5 : STEP
 NULL.              -999.25 : NULL VALUE

~ASCII LOG DATA
# ...
   1857.500    118.373     0.3584     2.4449      8.705
   1858.000    115.877     0.3063     2.4777      5.071
   1858.500    117.295     0.3614     2.5585      2.202
   1859.000     85.734     0.3432     2.6034      3.503
   1859.500    108.963     0.3253     2.4863      7.561
   1860.000    118.770     0.3016     2.5952      6.647
   1860.500     90.268     0.3546     2.5867      8.770
   1861.000     82.179     0.3658     2.6423     10.073
   1861.500    106.305     0.3466     2.4880      3.413
   1862.000    104.467     0.2854     2.5947      8.474
   1862.500    112.008     0.3008     2.4551      2.029
   1863.000     85.305     0.2840     2.5563      5.611
   1863.500    113.385     0.3265     2.5452     10.006
   1864.000     88.660     0.3552     2.5483      5.327
   1864.500     86.343     0.2965     2.6087     10.128
   1865.000     85.419     0.3701     2.4479     11.484
   1865.500    106.783     0.3358     2.5610      7.775
   1866.000    108.005     0.3446     2.4935      3.296
   1866.500    100.417     0.3817     2.5928      5.757
   1867.000     97.380     0.2883     2.4571      0.822
   1867.500    115.884     0.3683     2.6102      7.561
   1868.000     94.616     0.2853     2.6151      9.945
   1868.500    114.798     0.3298     2.6205      8.407
   1869.000     99.868     0.3688     2.4701      9.054
   1869.500     94.640     0.3749     2.5869     10.252
   1870.000    100.894     0.3263     2.4536      9.872
   1870.500     90.944     0.3398     2.6138      4.424
   1871.000    110.224     0.3504     2.5914     11.206
   1871.500    101.252     0.3672     2.5679      7.755
   1872.000     90.858     0.2989     2.6043      4.663
   1872.500    117.226     0.3538     2.4713     11.774
   1873.000     94.690     0.3228     2.5497     10.988
   1873.500    103.930     0.3283     2.5139      6.919
   1874.000    116.010     0.3198     2.6447     10.000
   1874.500    103.831     0.3350     2.6389      3.840
   1875.000     83.567     0.3726     2.5963      5.766
   1875.500    121.473     0.3286     2.6536      3.218
   1876.000    103.624     0.3665     2.5213      7.173
   1876.500     95.979     0.3004     2.6198      7.112
   1877.000     83.300     0.3550     2.5480      2.970
   1877.500    112.737     0.3661     2.5821      8.439
   1878.000    105.397     0.3496     2.5775      2.262
   1878.500    104.581     0.3219     2.4329      1.605
   1879.000    114.447     0.3390     2.5496      4.757
   1879.500    109.683     0.3588     2.4751      4.982
   1880.000     85.834     0.3528     2.6509      4.598
   1880.500     95.798     0.2823     2.4788      4.405
   1881.000     88.171     0.3545     2.5611      5.252
   1881.500    104.581     0.3228     2.5904      2.689
   1882.000     81.461     0.3017     2.5048      5.159
   1882.500    104.695     0.3594     2.5603     11.118
   1883.000    108.471     0.3233     2.5592      3.641
   1883.500    116.766     0.3553     2.4853      9.132
   1884.000     91.611     0.3112     2.6050      2.433
   1884.500    112.557     0.2876     2.5078      4.287
   1885.000     85.931     0.3285     2.4854      5.179
   1885.500    111.483     0.2969     2.5605     10.394
   1886.000     85.463     0.3623     2.5268      5.271
   1886.500     98.321     0.3080     2.6447      8.415
   1887.000    112.840     0.3330     2.6257      7.683
   1887.500     84.555     0.2856     2.5397      3.282
   1888.000     92.207     0.2989     2.5216     10.858
   1888.500    110.207     0.3504     2.5137      5.790
   1889.000    105.081     0.2918     2.5017      1.212
   1889.500    107.374     0.3474     2.5657      4.469
   1890.000    106.615     0.3660     2.6082      5.439
   1890.500    102.102     0.3446     2.5064      2.915
   1891.000     92.088     0.3549     2.4744      6.532
   1891.500     92.729     0.2876     2.5450      6.495
   1892.000     83.973     0.3118     2.4763      7.945
   1892.500    119.349     0.3712     2.5890      1.710
   1893.000    105.665     0.3486     2.5487     11.645
   1893.500     95.860     0.3501     2.5417      4.358
   1894.000    100.187     0.3465     2.4929      9.068
   1894.500    117.153     0.3221     2.6427     10.069
   1895.000     86.328     0.2902     2.4729      3.539
   1895.500    103.161     0.3567     2.6317      3.129
   1896.000     99.578     0.3525     2.5279      2.580
   1896.500    105.177     0.3315     2.6181      3.959
   1897.000     78.308     0.3692     2.5926      3.723
   1897.500    114.382     0.3066     2.4658      8.736
   1898.000    117.914     0.3095     2.6121      5.972
   1898.500    106.282     0.3730     2.5823      6.759
   1899.000    105.531     0.3638     2.4675      2.580
   1899.500    117.941     0.3400     2.4970     11.119
   1900.000    109.550     0.2906     2.5684      3.812
   1900.500     82.348     0.3054     2.5808      5.428
   1901.000    103.873     0.3406     2.6015      2.260
   1901.500    106.029     0.3195     2.5842      3.498
   1902.000     98.143     0.3692     2.5824      8.959
   1902.500    109.290     0.3795     2.6068      8.326
   1903.000    118.041     0.3611     2.5642      8.766
   1903.500    117.362     0.3164     2.5084      7.626
   1904.000     94.655     0.3539     2.6325     11.165
   1904.500     84.916     0.3140     2.4250      7.277
   1905.000    118.660     0.2902     2.5137      6.578
   1905.500    112.146     0.2816     2.6101      3.891
   1906.000     89.956     0.3095     2.5406      1.860
   1906.500    119.339     0.3638     2.4265      7.549
   1907.000    112.496     0.3082     2.4481      5.789
   1907.500    101.447     0.3044     2.5869      7.130
   1908.000    106.567     0.3755     2.6372      3.985
   1908.500     92.968     0.2828     2.5334      9.718
   1909.000     82.344     0.3596     2.5619     11.973
   1909.500     93.656     0.3144     2.5209      4.830
   1910.000    109.565     0.2855     2.4930      9.901
   1910.500     80.944     0.3651     2.4666     10.886
   1911.000     95.572     0.2817     2.4967     12.159
   1911.500     98.943     0.3301     2.5336      4.951
   1912.000    100.997     0.3066     2.4847      9.432
   1912.500    121.798     0.2913     2.4485      4.929
   1913.000     89.738     0.2862     2.5977      7.750
   1913.500     94.591     0.2942     2.6341      8.335
   1914.000    106.675     0.2827     2.6328      8.704
   1914.500     98.269     0.3557     2.5807      3.800
   1915.000     87.940     0.3289     2.4446      9.139
   1915.500     99.111     0.3105     2.6050      5.665
   1916.000     85.381     0.3165     2.4753      3.288
   1916.500     85.404     0.3718     2.5770      7.168
   1917.000     98.414     0.3744     2.6100     10.539
   1917.500    100.622     0.3470     2.5864     11.827
   1918.000    117.481     0.3674     2.6514      9.664
   1918.500     91.091     0.3187     2.6029      2.130
   1919.000    104.325     0.3155     2.5923      2.738
   1919.500    104.901     0.3414     2.4977      1.968
   1920.000     80.533     0.3418     2.6427      2.989
   1920.500    108.181     0.3272     2.4979      4.692
   1921.000     89.488     0.3284     2.6470      5.433
   1921.500    116.725     0.3801     2.5071      2.765
   1922.000     85.887     0.3543     2.4842     10.988
   1922.500     95.493     0.3311     2.6293      8.144
   1923.000     84.608     0.3541     2.4481      9.931
   1923.500    119.410     0.3051     2.6305      5.490
   1924.000    100.146     0.2968     2.5041      5.252
   1924.500    103.275     0.3113     2.6168      4.509
   1925.000     82.471     0.3289     2.5812      6.992
   1925.500    113.408     0.2821     2.5688      8.245
   1926.000     93.178     0.3665     2.5227      7.207
   1926.500    116.676     0.3313     2.4603     10.125
   1927.000     88.006     0.3389     2.6179     10.991
   1927.500     84.436     0.2869     2.4978      6.695
   1928.000     79.941     0.2922     2.5243      4.620
   1928.500     98.629     0.3684     2.5674     11.348
