~VERSION INFORMATION
 VERS.                    2.0 : CWLS Log ASCII Standard - VERSION 2.0
 WRAP.                     NO : ONE LINE PER DEPTH STEP

~WELL INFORMATION
 WELL.              Well-Beta : WELL NAME
 FLD .                FIELD-A : FIELD NAME
 LOC .         SEC 12 T5N R6E : LOCATION
 CTRY.                    USA : COUNTRY
 SRVC.           SYNTH LOGGER : SERVICE COMPANY
 DATE.              2024-01-15 : LOG DATE
 UWI .       30-045-20130-00-00 : UNIQUE WELL ID

~CURVE INFORMATION
 DEPT.M                      : DEPTH
 GR  .GAPI                   : GAMMA RAY
 NPHI.V/V                    : NEUTRON POROSITY
 RHOB.G/CC                   : BULK DENSITY
 RT  .OHMM                   : TRUE RESISTIVITY

~PARAMETER INFORMATION
 STRT.M            2500.00 : START DEPTH
 STOP.M            4000.50 : STOP DEPTH
 STEP.M                  0.5 : STEP
 NULL.              -999.25 : NULL VALUE

~ASCII LOG DATA
   2500.000     34.182     0.1047     2.7441    843.376
   2500.500     28.747     0.1821     2.7322    400.070
   2501.000     33.388     0.1764     2.6729    685.158
   2501.500     15.897     0.1338     2.6671    291.417
   2502.000     37.525     0.1920     2.6923    778.986
   2502.500     29.194     0.1957     2.6047    621.902
   2503.000     21.162     0.1442     2.6440    809.408
   2503.500     12.954     0.2033     2.6660    156.610
   2504.000     39.654     0.1046     2.6753    546.888
   2504.500     15.029     0.0797     2.6257    431.080
   2505.000     34.657     0.1899     2.6656    651.863
   2505.500     32.364     0.1295     2.6965    685.576
   2506.000     23.505     0.1837     2.6030    473.437
   2506.500     28.085     0.0956     2.6543    151.059
   2507.000     39.633     0.1191     2.7431    871.615
   2507.500     25.187     0.1354     2.6222    263.703
   2508.000     36.275     0.1861     2.6320    663.629
   2508.500     26.994     0.0942     2.6206    856.089
   2509.000     16.388     0.1948     2.6504    616.061
   2509.500     34.178     0.1921     2.7434    648.321
   2510.000     20.277     0.1699     2.7630    455.039
   2510.500     28.552     0.1726     2.6941    142.520
   2511.000     19.587     0.1433     2.7045    651.407
   2511.500     33.369     0.1728     2.7814    368.937
   2512.000     37.458     0.1398     2.6170    444.770
   2512.500     21.653     0.1434     2.6348    527.061
   2513.000     28.466     0.1321     2.6347    683.438
   2513.500     15.778     0.1805     2.6247    378.021
   2514.000     27.393     0.1689     2.7549    504.512
   2514.500     16.644     0.1512     2.6438    446.927
   2515.000     16.968     0.1293     2.6462    573.477
   2515.500     22.863     0.1046     2.7800    222.123
   2516.000     25.237     0.1731     2.6013    650.414
   2516.500     17.022     0.1376     2.6309    851.958
   2517.000     20.462     0.1316     2.6990    116.975
   2517.500     15.530     0.1863     2.6659    665.884
   2518.000     38.784     0.0950     2.6015    661.096
   2518.500     27.842     0.1532     2.6202    785.049
   2519.000     18.398     0.1773     2.6839    253.934
   2519.500     36.760     0.1174     2.6762    355.405
   2520.000     29.131     0.1518     2.6314    783.296
   2520.500     15.459     0.0809     2.6007    232.652
   2521.000     28.531     0.1756     2.6207    406.053
   2521.500     31.411     0.1603     2.7010    595.110
   2522.000     34.354     0.1679     2.6088    599.526
   2522.500     31.956     0.1670     2.7215    261.519
   2523.000     23.961     0.1841     2.7429    819.571
   2523.500     39.380     0.1881     2.7608    623.128
   2524.000     26.233     0.1714     2.6097    273.618
   2524.500     20.781     0.1226     2.7375    464.178
   2525.000     29.329     0.1663     2.6894    687.230
   2525.500     26.274     0.1635     2.7293    691.859
   2526.000     17.736     0.1350     2.6760    501.710
   2526.500     37.534     0.1170     2.6711    505.307
   2527.000     37.818     0.1692     2.6473    231.344
   2527.500     36.101     0.1924     2.7197    649.755
   2528.000     27.442     0.1929     2.6932    294.021
   2528.500     32.470     0.1749     2.7101    197.672
   2529.000     33.739     0.1385     2.6315    369.807
   2529.500     17.449     0.1847     2.7420    594.560
   2530.000     25.064     0.0918     2.6020    798.866
   2530.500     31.184     0.1057     2.6093    407.658
   2531.000     40.095     0.1037     2.7423    604.844
   2531.500     33.010     0.1912     2.6519    355.750
   2532.000     29.055     0.1072     2.7730    366.430
   2532.500     18.806     0.1155     2.7033    217.057
   2533.000     21.150     0.0904     2.6136    526.796
   2533.500     19.142     0.0898     2.7260    576.659
   2534.000     23.253     0.1595     2.6382    458.181
   2534.500     33.644     0.1329     2.5940    720.431
   2535.000     41.233     0.1766     2.7140    601.958
   2535.500     15.901     0.1659     2.6299    549.436
   2536.000     20.950     0.1656     2.6863    735.503
   2536.500     17.163     0.1208     2.6210    794.813
   2537.000     37.434     0.0957     2.7375    855.551
   2537.500     33.589     0.1673     2.7102    787.884
   2538.000     36.197     0.1698     2.7214    544.254
   2538.500     36.601     0.0832     2.6360    822.378
   2539.000     20.437     0.1609     2.7530    100.349
   2539.500     25.843     0.1495     2.7790    340.841
   2540.000     29.201     0.1539     2.7007    579.420
   2540.500     28.318     0.1106     2.6958    217.157
   2541.000     34.671     0.1530     2.7493    818.631
   2541.500     36.175     0.1322     2.7792    493.011
   2542.000     19.894     0.1808     2.6191    261.496
   2542.500     19.435     0.1459     2.7250    596.448
   2543.000     35.243     0.0930     2.6130    603.212
   2543.500     21.634     0.1628     2.7335    133.746
   2544.000     33.328     0.1187     2.7141    405.284
   2544.500     26.330     0.1041     2.7624    514.001
   2545.000     33.012     0.1275     2.6485    591.521
   2545.500     23.301     0.0810     2.7819    818.437
   2546.000     16.806     0.1269     2.6881    436.013
   2546.500     22.515     0.1043     2.7175    384.252
   2547.000     20.245     0.1625     2.6277     92.722
   2547.500     20.570     0.1649     2.7048     83.042
   2548.000     27.495     0.1729     2.6143    778.847
   2548.500     22.308     0.2043     2.5974    692.702
   2549.000     34.851     0.1456     2.6828    411.418
   2549.500     30.182     0.1709     2.7498    316.574
   2550.000     36.206     0.1548     2.6475    525.964
   2550.500     35.831     0.0884     2.5953    562.852
   2551.000     28.734     0.1839     2.6371    152.668
   2551.500     22.577     0.1581     2.7227    832.992
   2552.000     40.429     0.1431     2.7344    133.042
   2552.500     14.813     0.1933     2.7487    656.461
   2553.000     25.869     0.1699     2.7420    195.519
   2553.500     20.964     0.0931     2.6682    322.565
   2554.000     25.564     0.0873     2.7081    732.945
   2554.500     35.101     0.0877     2.7157    315.086
   2555.000     28.584     0.1569     2.6377    288.971
   2555.500     23.774     0.1315     2.6881    162.896
   2556.000     24.634     0.1433     2.6532    350.770
   2556.500     16.164     0.1119     2.7623    457.993
   2557.000     34.079     0.1217     2.7126    352.644
   2557.500     34.009     0.0932     2.6415    647.596
   2558.000     28.308     0.1949     2.6555    421.978
   2558.500     38.434     0.1460     2.6634    270.633
   2559.000     17.407     0.0956     2.6632    485.140
   2559.500     19.348     0.0879     2.7527    267.041
   2560.000     37.464     0.1456     2.7551    799.135
   2560.500     32.836     0.1205     2.7786    261.788
   2561.000     25.315     0.1629     2.7021    832.887
   2561.500     34.275     0.1458     2.6555    444.128
   2562.000     33.788     0.1465     2.6689    372.601
   2562.500     28.079     0.0834     2.6784    341.070
   2563.000     34.486     0.0819     2.6464    480.699
   2563.500     21.042     0.0817     2.6527    431.031
   2564.000     34.029     0.0919     2.6658    198.758
   2564.500     26.438     0.0839     2.7378    282.858
   2565.000     29.751     0.1948     2.7646    858.311
   2565.500     30.850     0.1601     2.7627    423.085
   2566.000     31.306     0.1466     2.7608    605.749
   2566.500     31.042     0.1075     2.7179    770.441
   2567.000     15.130     0.1121     2.6036    403.670
   2567.500     21.304     0.1450     2.6455    876.314
   2568.000     23.496     0.1297     2.6487    297.455
   2568.500     42.882     0.1375     2.6297    545.578
   2569.000     33.506     0.1520     2.6459    284.119
   2569.500     19.560     0.1026     2.6661    416.690
   2570.000     33.156     0.1725     2.6199    315.951
   2570.500     36.880     0.1470     2.7552    824.544
   2571.000     39.880     0.0974     2.6838    735.678
