~VERSION INFORMATION
 VERS.                    2.0 : CWLS Log ASCII Standard - VERSION 2.0
 WRAP.                     NO : ONE LINE PER DEPTH STEP

~WELL INFORMATION
 WELL.              Well-Beta : WELL NAME
 FLD .                FIELD-A : FIELD NAME
 LOC .         SEC 12 T5N R6E : LOCATION
 CTRY.                    USA : COUNTRY
 SRVC.           SYNTH LOGGER : SERVICE COMPANY
 DATE.              2024-01-15 : LOG DATE
 UWI .       30-045-20130-00-00 : UNIQUE WELL ID

~CURVE INFORMATION
 DEPT.M                      : DEPTH
 GR  .GAPI                   : GAMMA RAY
 NPHI.V/V                    : NEUTRON POROSITY
 RHOB.G/CC                   : BULK DENSITY
 RT  .OHMM                   : TRUE RESISTIVITY

~PARAMETER INFORMATION
 STRT.M            2500.00 : START DEPTH
 STOP.M            4000.50 : STOP DEPTH
 STEP.M                  0.5 : STEP
 NULL.              -999.25 : NULL VALUE

~ASCII LOG DATA
# ...
   3858.500     24.303     0.1358     2.5807     85.917
   3859.000     36.946     0.0957     2.6097    128.436
   3859.500     24.197     0.1491     2.6306    478.980
   3860.000     25.279     0.0915     2.6680    761.624
   3860.500     17.987     0.1408     2.7143    399.493
   3861.000     22.318     0.1015     2.6554    181.606
   3861.500     36.072     0.1105     2.7488    449.879
   3862.000     37.798     0.1820     2.7337    262.704
   3862.500     29.097     0.1758     2.6913    230.354
   3863.000     38.768     0.1033     2.6450    678.997
   3863.500     18.823     0.1708     2.7186    795.084
   3864.000     27.135     0.1819     2.6940    885.398
   3864.500     16.378     0.1052     2.7203    645.810
   3865.000     16.652     0.1732     2.6739    507.265
   3865.500     19.829     0.1377     2.7442    710.472
   3866.000     16.790     0.1794     2.6421    169.413
   3866.500     20.398     0.1450     2.7698    340.030
   3867.000     24.030     0.1756     2.7029    243.251
   3867.500     15.102     0.1184     2.6305    497.360
   3868.000     15.487     0.1188     2.6491     82.996
   3868.500     30.530     0.1070     2.6918    817.450
   3869.000     32.179     0.1811     2.6371    686.113
   3869.500     32.028     0.1300     2.6994    827.819
   3870.000     22.154     0.0998     2.7621    595.625
   3870.500     26.271     0.1402     2.6963    233.835
   3871.000     30.401     0.2009     2.7435    113.662
   3871.500     23.614     0.1617     2.7829    547.980
   3872.000     30.935     0.1561     2.7760    839.975
   3872.500     30.534     0.0892     2.7262    649.672
   3873.000     19.581     0.1094     2.6956    194.324
   3873.500     35.944     0.1654     2.7773    307.265
   3874.000     31.627     0.1990     2.7736    322.361
   3874.500     27.637     0.1441     2.6051    749.474
   3875.000     21.663     0.0851     2.6119    374.489
   3875.500     19.103     0.1312     2.7690    180.185
   3876.000     35.081     0.1267     2.6756    573.760
   3876.500     33.791     0.1207     2.7636    720.340
   3877.000     16.027     0.0921     2.7408    683.220
   3877.500     24.683     0.1009     2.6854    172.145
   3878.000     17.664     0.1658     2.7064    193.515
   3878.500     22.601     0.1367     2.6606     90.973
   3879.000     16.317     0.1811     2.7696    228.054
   3879.500     26.491     0.1075     2.7792    121.467
   3880.000     19.736     0.0780     2.6171    596.140
   3880.500     38.748     0.1689     2.6138    320.573
   3881.000     24.071     0.1679     2.7131    649.357
   3881.500     36.528     0.1190     2.6102    136.133
   3882.000     17.994     0.1743     2.6142    507.863
   3882.500     37.791     0.1115     2.5873    894.750
   3883.000     35.897     0.1841     2.7034    505.110
   3883.500     18.814     0.1434     2.6682    295.978
   3884.000     23.273     0.1244     2.6559    453.232
   3884.500     16.462     0.1008     2.7352    257.137
   3885.000     20.601     0.1511     2.7063    838.858
   3885.500     34.397     0.1761     2.7213    285.582
   3886.000     20.801     0.1243     2.6612    398.412
   3886.500     36.922     0.1154     2.7079    378.486
   3887.000     16.074     0.1578     2.7212    743.565
   3887.500     22.906     0.2016     2.6903    305.518
   3888.000     37.486     0.1096     2.7788    856.804
   3888.500     30.439     0.1585     2.7432    751.978
   3889.000     23.812     0.0963     2.6118    860.438
   3889.500     39.800     0.1426     2.6154    494.212
   3890.000     20.420     0.1552     2.6299    859.685
   3890.500     24.079     0.2045     2.6401    891.488
   3891.000     27.391     0.1300     2.7099     95.780
   3891.500     19.456     0.0986     2.6891    656.333
   3892.000     21.485     0.1434     2.7326    653.843
   3892.500     26.632     0.1547     2.6920    500.074
   3893.000     18.540     0.1780     2.7118    166.082
   3893.500     24.617     0.0883     2.6387    124.748
   3894.000     31.684     0.1553     2.6543    556.091
   3894.500     34.728     0.1784     2.7018    664.536
   3895.000     22.126     0.0850     2.6391    418.629
   3895.500     28.785     0.1474     2.7637    884.291
   3896.000     40.937     0.1611     2.7614    806.556
   3896.500     17.122     0.1702     2.7492    251.323
   3897.000     17.212     0.1212     2.6811    712.928
   3897.500     22.851     0.1884     2.6391    681.673
   3898.000     18.123     0.1648     2.7758    368.139
   3898.500     25.446     0.1532     2.6942    517.976
   3899.000     27.445     0.2012     2.6548    802.207
   3899.500     23.118     0.1894     2.6208    767.565
   3900.000     23.456     0.1016     2.7194    738.838
   3900.500     27.037     0.1311     2.6913    746.684
   3901.000     24.133     0.1959     2.7147    680.167
   3901.500     31.461     0.1110     2.7224    181.498
   3902.000     20.922     0.1245     2.7706    556.869
   3902.500     39.237     0.1252     2.7249    570.225
   3903.000     37.165     0.0871     2.7148    191.185
   3903.500     31.555     0.1068     2.6626    222.169
   3904.000     31.770     0.1087     2.6728    184.259
   3904.500     24.986     0.0925     2.7551    319.198
   3905.000     30.945     0.1744     2.7287    245.136
   3905.500     19.690     0.1838     2.6303    314.890
   3906.000     23.515     0.1422     2.7696    607.489
   3906.500     29.420     0.1811     2.6608    269.601
   3907.000     38.784     0.1116     2.7708    313.868
   3907.500     23.320     0.1039     2.6098    170.641
   3908.000     37.722     0.1519     2.6080    268.867
   3908.500     18.752     0.1399     2.6072    594.076
   3909.000     29.025     0.1268     2.6518    537.642
   3909.500     26.703     0.1344     2.6270    112.128
   3910.000     35.756     0.1897     2.7240    357.040
   3910.500     25.209     0.1155     2.6941    795.996
   3911.000     29.041     0.1551     2.6451    604.794
   3911.500     22.867     0.1949     2.7481     88.349
   3912.000     30.111     0.2057     2.6170    710.215
   3912.500     29.872     0.1099     2.7629    432.553
   3913.000     39.163     0.1567     2.6243    503.916
   3913.500     25.320     0.1058     2.7036    192.391
   3914.000     25.513     0.1123     2.7328    870.039
   3914.500     26.792     0.0884     2.7427    354.323
   3915.000     36.299     0.1894     2.6618    812.900
   3915.500     31.919     0.1313     2.7633    116.080
   3916.000     15.634     0.1990     2.7567    527.230
   3916.500     27.516     0.1307     2.5923    762.505
   3917.000     27.601     0.1772     2.6908    898.380
   3917.500     35.887     0.0912     2.6931    794.670
   3918.000     16.222     0.1975     2.7875    590.042
   3918.500     34.191     0.0886     2.7670    754.001
   3919.000     37.165     0.0867     2.7066    598.241
   3919.500     37.938     0.1690     2.7865    677.520
   3920.000     26.450     0.1060     2.7491    570.590
   3920.500     19.981     0.1120     2.6765    289.466
   3921.000     19.844     0.1961     2.6066    543.658
   3921.500     40.837     0.1429     2.7398    100.347
   3922.000     18.604     0.0899     2.7473    716.514
   3922.500     21.755     0.1234     2.7197    409.426
   3923.000     20.618     0.1262     2.7784    672.528
   3923.500     35.712     0.1947     2.7899    326.825
   3924.000     24.164     0.1493     2.6287    342.999
   3924.500     30.532     0.1215     2.7403    444.803
   3925.000     19.856     0.1673     2.6669    650.366
   3925.500     18.283     0.1230     2.7899    632.350
   3926.000     27.778     0.1091     2.6493    764.746
   3926.500     22.586     0.0927     2.7002    769.016
   3927.000     30.125     0.1460     2.6000    293.227
   3927.500     34.221     0.1020     2.7218    701.014
   3928.000     36.073     0.0944     2.7870    624.996
   3928.500     15.616     0.1629     2.7229    869.994
   3929.000     17.445     0.1322     2.7070    602.269
   3929.500     20.960     0.1117     2.7012    382.981
