~VERSION INFORMATION
 VERS.                    2.0 : CWLS Log ASCII Standard - VERSION 2.0
 WRAP.                     NO : ONE LINE PER DEPTH STEP

~WELL INFORMATION
 WELL.              Well-Alpha : WELL NAME
 FLD .                FIELD-A : FIELD NAME
 LOC .         SEC 12 T5N R6E : LOCATION
 CTRY.                    USA : COUNTRY
 SRVC.           SYNTH LOGGER : SERVICE COMPANY
 DATE.              2024-01-15 : LOG DATE
 UWI .       30-045-20130-00-00 : UNIQUE WELL ID

~CURVE INFORMATION
 DEPT.M                      : DEPTH
 GR  .GAPI                   : GAMMA RAY
 NPHI.V/V                    : NEUTRON POROSITY
 RHOB.G/CC                   : BULK DENSITY
 RT  .OHMM                   : TRUE RESISTIVITY

~PARAMETER INFORMATION
 STRT.M            1500.00 : START DEPTH
 STOP.M            3000.50 : STOP DEPTH
 STEP.M                  0.5 : STEP
 NULL.              -999.25 : NULL VALUE

~ASCII LOG DATA
# ...
   2644.000     98.940     0.2823     2.6174      8.688
   2644.500     83.031     0.3229     2.5756      4.272
   2645.000    101.518     0.3847     2.5094     11.899
   2645.500     90.384     0.3434     2.5152      6.238
   2646.000     85.651     0.3193     2.6194      8.255
   2646.500    102.250     0.3034     2.5421      4.813
   2647.000     81.057     0.3109     2.5548      9.851
   2647.500     81.026     0.2891     2.5718     10.445
   2648.000     83.554     0.2868     2.5309      9.423
   2648.500     80.418     0.3701     2.5005     10.062
   2649.000     82.926     0.3594     2.5491      2.733
   2649.500     91.646     0.2908     2.4953     10.786
   2650.000    111.273     0.2766     2.5100      8.468
   2650.500    100.629     0.3187     2.4382     11.201
   2651.000    100.937     0.3308     2.5186      8.124
   2651.500     93.273     0.3019     2.5135      2.967
   2652.000    118.631     0.3106     2.6485      7.632
   2652.500     95.605     0.3028     2.5730      2.254
   2653.000     87.482     0.3524     2.6106      9.438
   2653.500    106.963     0.3575     2.4551      5.769
   2654.000     84.350     0.3440     2.4674      3.303
   2654.500     92.844     0.3233     2.6124     11.991
   2655.000    102.973     0.3753     2.5764     10.521
   2655.500    116.984     0.3796     2.4840     10.757
   2656.000     96.921     0.2989     2.5404      9.776
   2656.500    110.262     0.3035     2.5545      8.955
   2657.000    119.404     0.3322     2.6089      7.661
   2657.500     83.538     0.2915     2.4680      2.317
   2658.000     87.031     0.3247     2.5882     10.962
   2658.500     95.245     0.3357     2.5817     10.532
   2659.000     96.849     0.3353     2.6443      8.651
   2659.500     99.615     0.3145     2.6221     10.876
   2660.000    118.219     0.3403     2.5109      6.611
   2660.500    107.396     0.3668     2.5981      6.891
   2661.000    105.095     0.3008     2.6030     11.504
   2661.500     94.027     0.3419     2.5694      6.341
   2662.000    113.124     0.2818     2.6166      7.744
   2662.500    117.028     0.2894     2.6345      5.533
   2663.000    111.784     0.3280     2.4809      8.529
   2663.500     80.834     0.2912     2.4634      8.603
   2664.000    106.282     0.2824     2.6261      7.612
   2664.500     81.460     0.2919     2.4974      6.655
   2665.000     85.066     0.3373     2.4569      3.951
   2665.500     79.800     0.3465     2.5230      8.450
   2666.000    105.391     0.3112     2.6244     11.418
   2666.500    103.202     0.3528     2.4644      0.856
   2667.000     86.948     0.2986     2.5907      3.347
   2667.500     97.426     0.3392     2.4426      3.198
   2668.000     98.332     0.3237     2.4715      9.773
   2668.500     95.958     0.3492     2.5049      7.907
   2669.000     85.899     0.3808     2.4746     11.190
   2669.500     96.524     0.3687     2.6177      7.904
   2670.000    107.299     0.2794     2.6284      6.567
   2670.500     84.775     0.3689     2.5993      9.357
   2671.000     86.022     0.2881     2.5038      4.002
   2671.500     91.774     0.3769     2.5542      5.154
   2672.000    114.847     0.3118     2.4942      5.978
   2672.500    106.469     0.3249     2.5116      4.053
   2673.000    105.894     0.2942     2.5552      5.309
   2673.500     94.767     0.2942     2.5880      2.772
   2674.000    106.162     0.3464     2.4646      3.128
   2674.500     75.914     0.3804     2.5016      5.127
   2675.000    108.606     0.3452     2.6496      9.959
   2675.500    115.718     0.3503     2.5436      3.400
   2676.000    105.526     0.3563     2.6382      5.301
   2676.500    116.185     0.3066     2.6427      2.635
   2677.000    110.430     0.2823     2.5474      7.486
   2677.500     84.946     0.2714     2.5088      8.442
   2678.000    116.689     0.3095     2.6266     10.038
   2678.500     83.236     0.2996     2.4819      9.880
   2679.000    100.098     0.2764     2.5124      3.947
   2679.500     82.169     0.2924     2.6097      3.212
   2680.000     78.030     0.2982     2.5424      3.750
   2680.500     96.673     0.3739     2.4855     11.519
   2681.000     90.228     0.2892     2.5783      8.710
   2681.500     97.871     0.3303     2.5882      1.200
   2682.000    106.686     0.3455     2.4781      2.947
   2682.500     83.467     0.3404     2.5030      5.764
   2683.000     84.416     0.2903     2.4979      3.713
   2683.500    103.690     0.3178     2.5161      8.977
   2684.000     92.886     0.2813     2.6072      8.366
   2684.500    109.388     0.3207     2.5944      7.907
   2685.000    106.975     0.2915     2.5839      6.315
   2685.500    112.989     0.3343     2.4552      5.143
   2686.000    106.329     0.3494     2.4761      7.722
   2686.500     99.645     0.3248     2.5327      8.223
   2687.000    108.147     0.3264     2.5091      5.180
   2687.500     86.506     0.3225     2.4803      7.774
   2688.000     90.916     0.3692     2.5395      9.869
   2688.500    109.997     0.3136     2.4598      2.841
   2689.000     96.615     0.3555     2.5945      7.998
   2689.500    113.660     0.3554     2.6155      4.773
   2690.000    112.935     0.3139     2.5737      8.832
   2690.500    111.523     0.3117     2.4799      2.373
   2691.000    115.899     0.3299     2.6138      8.253
   2691.500     98.323     0.2825     2.6419      2.181
   2692.000     92.315     0.2834     2.4938      1.259
   2692.500    101.999     0.2912     2.5981      8.557
   2693.000     95.509     0.3014     2.6237      7.782
   2693.500    107.279     0.3347     2.5495     10.715
   2694.000    109.146     0.3622     2.5198      7.135
   2694.500    110.138     0.3046     2.5489      7.043
   2695.000     93.827     0.3764     2.5556      8.308
   2695.500     86.658     0.3746     2.5192      5.576
   2696.000     97.164     0.3738     2.6266      1.337
   2696.500     85.941     0.3673     2.6169      4.817
   2697.000    116.485     0.3155     2.5081      4.075
   2697.500     91.997     0.2813     2.5665      5.547
   2698.000     87.473     0.3437     2.5873     11.671
   2698.500     77.762     0.3304     2.5003     10.704
   2699.000    103.161     0.3645     2.5221     11.306
   2699.500    109.747     0.3812     2.6299     11.852
   2700.000     92.604     0.3331     2.5555      6.207
   2700.500     84.328     0.3154     2.4911      3.747
   2701.000     99.782     0.2839     2.4577      7.607
   2701.500     87.820     0.2770     2.5589     11.527
   2702.000    109.337     0.3324     2.5721      5.545
   2702.500    105.529     0.3350     2.5296      6.769
   2703.000     97.865     0.3651     2.5691      4.012
   2703.500     86.353     0.3356     2.4408      5.720
   2704.000    122.424     0.3742     2.4824      6.070
   2704.500     96.681     0.3392     2.5724      5.628
   2705.000    109.641     0.3613     2.4463     10.098
   2705.500     85.550     0.3030     2.6224      2.271
   2706.000    100.965     0.3646     2.4820     11.817
   2706.500     81.199     0.3470     2.5764      3.178
   2707.000     96.539     0.2996     2.5110     10.116
   2707.500    112.320     0.3052     2.5225      6.444
   2708.000     95.788     0.3681     2.5973      8.761
   2708.500     81.032     0.2807     2.5310      3.286
   2709.000     82.035     0.3182     2.6058      7.927
   2709.500     95.015     0.3099     2.5666     10.351
   2710.000     90.437     0.3493     2.5689      3.307
   2710.500     81.395     0.3621     2.6094      2.414
   2711.000    109.355     0.3248     2.5567      4.421
   2711.500     99.016     0.3233     2.5717      3.697
   2712.000     90.712     0.3777     2.6021      3.083
   2712.500    116.189     0.3566     2.6439      8.384
   2713.000     82.211     0.3629     2.4984      3.012
   2713.500    118.220     0.3234     2.5624      8.943
   2714.000     91.603     0.3052     2.4735     10.080
   2714.500    113.291     0.3206     2.5241      8.992
   2715.000    108.069     0.3528     2.5402      2.963
