~VERSION INFORMATION
 VERS.                    2.0 : CWLS Log ASCII Standard - VERSION 2.0
 WRAP.                     NO : ONE LINE PER DEPTH STEP

~WELL INFORMATION
 WELL.              Well-Beta : WELL NAME
 FLD .                FIELD-A : FIELD NAME
 LOC .         SEC 12 T5N R6E : LOCATION
 CTRY.                    USA : COUNTRY
 SRVC.           SYNTH LOGGER : SERVICE COMPANY
 DATE.              2024-01-15 : LOG DATE
 UWI .       30-045-20130-00-00 : UNIQUE WELL ID

~CURVE INFORMATION
 DEPT.M                      : DEPTH
 GR  .GAPI                   : GAMMA RAY
 NPHI.V/V                    : NEUTRON POROSITY
 RHOB.G/CC                   : BULK DENSITY
 RT  .OHMM                   : TRUE RESISTIVITY

~PARAMETER INFORMATION
 STRT.M            2500.00 : START DEPTH
 STOP.M            4000.50 : STOP DEPTH
 STEP.M                  0.5 : STEP
 NULL.              -999.25 : NULL VALUE

~ASCII LOG DATA
# ...
   2571.500     22.693     0.1607     2.7813    396.172
   2572.000     36.680     0.0999     2.6987    459.971
   2572.500     20.342     0.1752     2.7267    605.331
   2573.000     21.645     0.1368     2.6670    829.776
   2573.500     29.507     0.1894     2.6252     97.684
   2574.000     16.650     0.0953     2.6590    783.891
   2574.500     35.717     0.0897     2.7231    306.903
   2575.000     17.262     0.0810     2.6600    336.747
   2575.500     14.986     0.1326     2.6859    731.989
   2576.000     35.388     0.1962     2.7562    225.310
   2576.500     38.168     0.1940     2.6834    467.713
   2577.000     34.069     0.1583     2.6148    498.916
   2577.500     36.980     0.1600     2.6454    102.158
   2578.000     35.648     0.1141     2.7303    169.743
   2578.500     25.647     0.1506     2.7104    281.463
   2579.000     23.215     0.1154     2.7626    703.622
   2579.500     32.340     0.1096     2.7120    180.274
   2580.000     31.635     0.1784     2.6790    505.743
   2580.500     30.825     0.0852     2.6871    363.196
   2581.000     34.300     0.1595     2.7486    160.910
   2581.500     29.234     0.0783     2.7139    521.671
   2582.000     19.389     0.1241     2.7383    432.693
   2582.500     20.044     0.1627     2.7391    754.824
   2583.000     26.484     0.1604     2.6884    347.628
   2583.500     38.475     0.1732     2.7066    270.185
   2584.000     32.230     0.1828     2.6583    707.630
   2584.500     18.256     0.1493     2.7178    588.210
   2585.000     17.539     0.1659     2.7403    475.865
   2585.500     30.253     0.1269     2.6597    513.778
   2586.000     31.255     0.1352     2.7056    868.565
   2586.500     34.177     0.1011     2.7644    359.255
   2587.000     21.386     0.1225     2.5954    383.197
   2587.500     26.215     0.0787     2.6923    844.707
   2588.000     30.914     0.1617     2.6579     87.567
   2588.500     15.553     0.1534     2.6091    896.151
   2589.000     21.564     0.1245     2.7109    792.985
   2589.500     25.889     0.0912     2.7872    254.224
   2590.000     24.980     0.1523     2.7044    469.977
   2590.500     40.143     0.1504     2.7478    521.148
   2591.000     20.032     0.1021     2.7299    888.566
   2591.500     26.462     0.1739     2.6836    638.364
   2592.000     34.255     0.0832     2.6100    105.861
   2592.500     16.700     0.1889     2.7705    158.850
   2593.000     35.002     0.1442     2.7210    848.923
   2593.500     13.667     0.0934     2.6720    340.885
   2594.000     38.122     0.0915     2.6456    537.795
   2594.500     18.912     0.2009     2.6243    824.582
   2595.000     18.098     0.0965     2.7756    533.427
   2595.500     27.715     0.0799     2.7011    337.952
   2596.000     35.454     0.1676     2.7821    598.950
   2596.500     25.878     0.1099     2.7609    390.840
   2597.000     23.872     0.1443     2.7201    135.374
   2597.500     33.306     0.0816     2.7495    145.550
   2598.000     28.183     0.1073     2.7273    659.890
   2598.500     26.829     0.1009     2.6142    109.008
   2599.000     21.021     0.1745     2.6396    716.656
   2599.500     24.593     0.1787     2.6570    175.827
   2600.000     23.139     0.1101     2.6565    842.903
   2600.500     28.511     0.1612     2.6675    377.874
   2601.000     36.567     0.0867     2.5905    884.356
   2601.500     34.507     0.1902     2.7272    239.545
   2602.000     34.447     0.1418     2.6419    694.940
   2602.500     38.982     0.1780     2.6705    894.901
   2603.000     35.287     0.1728     2.6876    511.130
   2603.500     38.325     0.1726     2.7849    642.987
   2604.000     15.968     0.1150     2.7648    140.933
   2604.500     24.293     0.0779     2.7482    818.150
   2605.000     29.383     0.0849     2.7318    849.774
   2605.500     24.749     0.1648     2.5944    513.096
   2606.000     31.845     0.1838     2.7532     84.063
   2606.500     40.267     0.1241     2.7452    145.414
   2607.000     20.591     0.1057     2.7271    680.340
   2607.500     25.813     0.0930     2.6858    204.383
   2608.000     41.074     0.0775     2.6313    241.870
   2608.500     27.629     0.1646     2.7352    887.035
   2609.000     24.693     0.1129     2.7199    577.078
   2609.500     34.558     0.1662     2.6635    227.105
   2610.000     15.015     0.1922     2.6866    591.478
   2610.500     18.105     0.1537     2.7018    708.032
   2611.000     19.055     0.1276     2.7117    341.954
   2611.500     40.229     0.1716     2.7194    874.470
   2612.000     17.831     0.1954     2.6661     93.956
   2612.500     23.788     0.0975     2.6479    880.869
   2613.000     39.199     0.1655     2.6698    198.579
   2613.500     26.660     0.1972     2.6833    258.552
   2614.000     16.287     0.1264     2.6690    614.705
   2614.500     26.627     0.1211     2.7075    875.324
   2615.000     16.964     0.1283     2.5995    705.632
   2615.500     28.004     0.1050     2.7097    559.682
   2616.000     27.025     0.1068     2.6516    486.136
   2616.500     22.697     0.1001     2.6298    282.989
   2617.000     33.742     0.1730     2.7267    729.461
   2617.500     37.328     0.1619     2.7430    623.229
   2618.000     25.134     0.1899     2.7247    398.320
   2618.500     25.881     0.1452     2.6605    314.758
   2619.000     38.508     0.1853     2.6843    892.907
   2619.500     35.460     0.1804     2.6417    897.515
   2620.000     35.641     0.1593     2.6135    297.089
   2620.500     32.373     0.1514     2.6946    479.549
   2621.000     29.796     0.1712     2.7692    768.795
   2621.500     39.971     0.1509     2.6290    554.826
   2622.000     22.645     0.1951     2.7574    378.251
   2622.500     24.308     0.1473     2.6089    846.486
   2623.000     19.210     0.1477     2.6047    405.708
   2623.500     23.610     0.0733     2.7408    566.832
   2624.000     28.649     0.1050     2.6625    137.822
   2624.500     16.335     0.1514     2.6313    446.641
   2625.000     23.516     0.0857     2.6215    543.413
   2625.500     25.106     0.1462     2.6034    710.504
   2626.000     36.470     0.0829     2.7154    494.378
   2626.500     40.857     0.1082     2.6455    257.973
   2627.000     17.883     0.1851     2.6132    415.009
   2627.500     25.594     0.1826     2.6505    591.933
   2628.000     35.830     0.1918     2.6623    786.547
   2628.500     28.970     0.0800     2.6559    890.619
   2629.000     34.915     0.1537     2.7283    671.670
   2629.500     35.443     0.1876     2.6389    891.329
   2630.000     22.265     0.1250     2.6633    861.899
   2630.500     32.722     0.1418     2.6367    378.055
   2631.000     30.270     0.1362     2.7576    762.107
   2631.500     16.252     0.1176     2.7687    892.543
   2632.000     31.289     0.0834     2.6024    425.904
   2632.500     17.370     0.1989     2.6838    469.694
   2633.000     19.050     0.1245     2.6634    650.225
   2633.500     19.438     0.1331     2.5924    751.041
   2634.000     20.816     0.1747     2.7231    438.843
   2634.500     38.876     0.1521     2.6689    891.268
   2635.000     35.682     0.1957     2.7172    259.846
   2635.500     20.204     0.1551     2.7777    706.265
   2636.000     39.078     0.0868     2.7481    108.023
   2636.500     17.726     0.1517     2.6451     86.531
   2637.000     21.200     0.0825     2.6617    533.942
   2637.500     25.000     0.1120     2.7654    102.425
   2638.000     17.933     0.1100     2.7175    163.361
   2638.500     24.602     0.1344     2.6099    794.397
   2639.000     27.006     0.1493     2.7631    840.276
   2639.500     34.189     0.1033     2.6435    371.352
   2640.000     32.110     0.1320     2.6374    136.650
   2640.500     40.364     0.1210     2.6401    228.235
   2641.000     28.318     0.0870     2.6659    179.228
   2641.500     36.614     0.1066     2.7586    789.993
   2642.000     33.016     0.1733     2.6766    374.185
   2642.500     33.930     0.1727     2.6501    183.263
