~VERSION INFORMATION
 VERS.                    2.0 : CWLS Log ASCII Standard - VERSION 2.0
 WRAP.                     NO : ONE LINE PER DEPTH STEP

~WELL INFORMATION
 WELL.              Well-Alpha : WELL NAME
 FLD .                FIELD-A : FIELD NAME
 LOC .         SEC 12 T5N R6E : LOCATION
 CTRY.                    USA : COUNTRY
 SRVC.           SYNTH LOGGER : SERVICE COMPANY
 DATE.              2024-01-15 : LOG DATE
 UWI .       30-045-20130-00-00 : UNIQUE WELL ID

~CURVE INFORMATION
 DEPT.M                      : DEPTH
 GR  .GAPI                   : GAMMA RAY
 NPHI.V/V                    : NEUTRON POROSITY
 RHOB.G/CC                   : BULK DENSITY
 RT  .OHMM                   : TRUE RESISTIVITY

~PARAMETER INFORMATION
 STRT.M            1500.00 : START DEPTH
 STOP.M            3000.50 : STOP DEPTH
 STEP.M                  0.5 : STEP
 NULL.              -999.25 : NULL VALUE

~ASCII LOG DATA
# ...
   1571.500     92.688     0.3415     2.5628      7.157
   1572.000     94.858     0.3335     2.6375     12.015
   1572.500     82.881     0.3108     2.4561     10.022
   1573.000    106.454     0.3111     2.5153      5.967
   1573.500    101.747     0.3145     2.5559      2.492
   1574.000     82.059     0.3493     2.4805      7.981
   1574.500     93.313     0.2824     2.6411      9.505
   1575.000    117.821     0.3803     2.5689      8.366
   1575.500     92.461     0.3019     2.5346      5.391
   1576.000     84.877     0.3790     2.6174      3.323
   1576.500     96.102     0.3009     2.5444     11.619
   1577.000    121.517     0.3572     2.5710      3.890
   1577.500     90.382     0.3152     2.4334      4.411
   1578.000    106.293     0.2870     2.5222      9.478
   1578.500    109.984     0.3693     2.4665     12.525
   1579.000     94.615     0.3621     2.5965      8.351
   1579.500    107.844     0.3247     2.5591      8.290
   1580.000     93.005     0.3518     2.5154      5.579
   1580.500    105.463     0.3340     2.5380      2.013
   1581.000    107.702     0.3609     2.4844      3.447
   1581.500    105.988     0.3050     2.6309      8.074
   1582.000     84.926     0.3345     2.4524      2.605
   1582.500    110.871     0.3216     2.6215      9.816
   1583.000     96.773     0.3219     2.5448      4.049
   1583.500     87.422     0.3628     2.5600      6.326
   1584.000     79.956     0.2957     2.5143      7.337
   1584.500    101.477     0.2905     2.6479      7.912
   1585.000    108.775     0.3379     2.5234      4.931
   1585.500     81.141     0.3459     2.5634     10.200
   1586.000    101.174     0.3017     2.6298      5.940
   1586.500     91.633     0.3114     2.6344      8.858
   1587.000    104.203     0.3708     2.5665      8.276
   1587.500     89.707     0.3095     2.6595      2.279
   1588.000    106.599     0.3501     2.6050      8.410
   1588.500     99.797     0.3415     2.5066      7.686
   1589.000    118.667     0.3267     2.5214     11.177
   1589.500     83.660     0.3686     2.5324     10.530
   1590.000     89.592     0.3507     2.5155      3.515
   1590.500     86.157     0.3247     2.6101      2.668
   1591.000    116.239     0.3447     2.5694      3.616
   1591.500    114.782     0.3440     2.4479     11.965
   1592.000     91.850     0.3322     2.6371      2.693
   1592.500    108.420     0.3701     2.5048      9.051
   1593.000    115.136     0.3155     2.6680      8.466
   1593.500     99.858     0.3160     2.6332      7.939
   1594.000    104.038     0.2996     2.6281      3.855
   1594.500     88.516     0.2898     2.6056      3.789
   1595.000     79.212     0.2844     2.5091      6.021
   1595.500    113.532     0.3697     2.5409      2.249
   1596.000    116.453     0.3560     2.5040      1.666
   1596.500    103.366     0.3452     2.5203      2.460
   1597.000     93.385     0.3467     2.5705      7.126
   1597.500     94.645     0.3619     2.4542      5.969
   1598.000    108.675     0.3292     2.6447      4.568
   1598.500    114.896     0.3598     2.6225      3.853
   1599.000    112.982     0.3134     2.5526      4.367
   1599.500    111.239     0.3674     2.5598      6.038
   1600.000    101.551     0.3560     2.5310      3.403
   1600.500     81.994     0.3144     2.6184      8.661
   1601.000     84.610     0.3346     2.5895      2.187
   1601.500    115.463     0.3294     2.4927     11.425
   1602.000    103.831     0.2872     2.5243      2.784
   1602.500     82.288     0.3404     2.5387     12.279
   1603.000     87.226     0.3085     2.6519     10.205
   1603.500    104.305     0.2825     2.4942      8.672
   1604.000     84.188     0.3830     2.4673     11.675
   1604.500     84.874     0.3427     2.6234      2.382
   1605.000    102.294     0.3706     2.6299      3.424
   1605.500    108.698     0.3479     2.6343      3.769
   1606.000    110.968     0.3089     2.5396      4.136
   1606.500     87.886     0.3220     2.5742      5.232
   1607.000    104.894     0.3500     2.5589      6.718
   1607.500     92.471     0.3845     2.4615      2.351
   1608.000     91.349     0.3069     2.5686      5.694
   1608.500    109.136     0.3706     2.4525      4.157
   1609.000    103.750     0.3679     2.5217      8.543
   1609.500    113.252     0.3521     2.6188     11.449
   1610.000    104.624     0.3781     2.4948      6.265
   1610.500    104.085     0.3163     2.6313      5.457
   1611.000     83.909     0.3780     2.5087      5.633
   1611.500     93.347     0.3414     2.5064      9.494
   1612.000     92.600     0.2878     2.5753      1.819
   1612.500     90.270     0.3678     2.6036     11.089
   1613.000    115.228     0.3223     2.5534      5.976
   1613.500     97.563     0.3280     2.6421      4.780
   1614.000    116.052     0.3278     2.4650     11.018
   1614.500    108.027     0.2967     2.6444     10.634
   1615.000    112.040     0.3213     2.4880      7.977
   1615.500     98.522     0.3564     2.6416      2.153
   1616.000    102.668     0.2818     2.5309      9.147
   1616.500    101.309     0.3064     2.5970      4.285
   1617.000     86.268     0.2875     2.6089      5.534
   1617.500    108.017     0.3151     2.4857      3.186
   1618.000     90.788     0.3597     2.6389      6.254
   1618.500     78.674     0.3542     2.4884      8.709
   1619.000    104.306     0.3791     2.5208      4.739
   1619.500     87.430     0.3464     2.6049     10.741
   1620.000    120.023     0.3071     2.4673      3.938
   1620.500    118.791     0.3685     2.4791      1.422
   1621.000    116.503     0.3499     2.5544      7.511
   1621.500     93.144     0.3277     2.6133     10.429
   1622.000     82.809     0.3588     2.4641     11.131
   1622.500    118.000     0.3709     2.5589      9.288
   1623.000     95.714     0.3457     2.5932      3.672
   1623.500    120.463     0.3111     2.6196     11.483
   1624.000    119.664     0.3521     2.6189     10.680
   1624.500    112.493     0.2821     2.6098      3.459
   1625.000     91.575     0.3090     2.5679      7.458
   1625.500     94.418     0.3250     2.5456      7.355
   1626.000    119.313     0.2984     2.4669      6.138
   1626.500     93.740     0.2915     2.6012     11.434
   1627.000     87.153     0.2990     2.6487      1.621
   1627.500    103.217     0.3300     2.5980      7.913
   1628.000    120.205     0.3673     2.4661      3.263
   1628.500    107.674     0.3849     2.5411      7.031
   1629.000    101.623     0.3110     2.5620      9.491
   1629.500     85.576     0.3378     2.5935      4.100
   1630.000    104.250     0.3758     2.5808      5.584
   1630.500    117.462     0.2916     2.5536     12.366
   1631.000     83.074     0.3506     2.4789      8.802
   1631.500    103.792     0.3605     2.6500      7.420
   1632.000    115.358     0.2915     2.5793      3.277
   1632.500    108.452     0.3628     2.4908      5.724
   1633.000    107.412     0.3664     2.5016      9.219
   1633.500    109.714     0.2849     2.6305     10.435
   1634.000     93.793     0.2905     2.6261      3.331
   1634.500     88.845     0.2823     2.5393      8.842
   1635.000    113.026     0.3134     2.4444      2.762
   1635.500    114.821     0.3271     2.4537      2.771
   1636.000    116.966     0.3235     2.5210      8.163
   1636.500    115.411     0.3054     2.5862      3.457
   1637.000    102.992     0.3705     2.5601      2.947
   1637.500    100.487     0.3175     2.5763      9.001
   1638.000    114.414     0.2906     2.6131      6.881
   1638.500    107.146     0.3068     2.4419     10.721
   1639.000    105.035     0.3313     2.4518      8.092
   1639.500    115.325     0.3247     2.5165      9.191
   1640.000    115.704     0.3036     2.4801      3.754
   1640.500     94.673     0.2939     2.4570      4.708
   1641.000     92.335     0.3599     2.5880      8.861
   1641.500     84.770     0.3784     2.6152      3.887
   1642.000    105.337     0.3167     2.5945     10.746
   1642.500     85.308     0.3163     2.6080      7.562
