~VERSION INFORMATION
 VERS.                    2.0 : CWLS Log ASCII Standard - VERSION 2.0
 WRAP.                     NO : ONE LINE PER DEPTH STEP

~WELL INFORMATION
 WELL.              Well-Beta : WELL NAME
 FLD .                FIELD-A : FIELD NAME
 LOC .         SEC 12 T5N R6E : LOCATION
 CTRY.                    USA : COUNTRY
 SRVC.           SYNTH LOGGER : SERVICE COMPANY
 DATE.              2024-01-15 : LOG DATE
 UWI .       30-045-20130-00-00 : UNIQUE WELL ID

~CURVE INFORMATION
 DEPT.M                      : DEPTH
 GR  .GAPI                   : GAMMA RAY
 NPHI.V/V                    : NEUTRON POROSITY
 RHOB.G/CC                   : BULK DENSITY
 RT  .OHMM                   : TRUE RESISTIVITY

~PARAMETER INFORMATION
 STRT.M            2500.00 : START DEPTH
 STOP.M            4000.50 : STOP DEPTH
 STEP.M                  0.5 : STEP
 NULL.              -999.25 : NULL VALUE

~ASCII LOG DATA
# ...
   3286.500     27.027     0.0856     2.7490    234.725
   3287.000     19.845     0.1503     2.7647    490.331
   3287.500     19.616     0.1071     2.6352    355.708
   3288.000     22.781     0.1836     2.6800    734.953
   3288.500     16.948     0.1457     2.6195    411.627
   3289.000     22.658     0.0793     2.6132    465.848
   3289.500     27.580     0.1210     2.7542    217.146
   3290.000     19.123     0.1551     2.7257    520.143
   3290.500     23.244     0.1173     2.7691    381.088
   3291.000     31.001     0.1065     2.6749    276.110
   3291.500     33.885     0.1271     2.6396    870.359
   3292.000     18.139     0.1338     2.7252    543.483
   3292.500     36.851     0.1417     2.6073    828.629
   3293.000     29.438     0.1441     2.7556    847.100
   3293.500     28.537     0.0942     2.7466    528.919
   3294.000     14.805     0.1555     2.6402    805.493
   3294.500     32.531     0.1630     2.6792    124.507
   3295.000     31.943     0.1706     2.7710    154.303
   3295.500     33.931     0.1758     2.5975    838.325
   3296.000     30.239     0.0950     2.7406    806.387
   3296.500     15.392     0.1256     2.7607    839.417
   3297.000     20.320     0.1170     2.7834    711.756
   3297.500     26.105     0.1455     2.6901    456.534
   3298.000     32.463     0.0841     2.7494    335.798
   3298.500     31.785     0.1423     2.6803    451.825
   3299.000     25.684     0.1764     2.6842    247.830
   3299.500     36.635     0.1810     2.6561    442.314
   3300.000     32.412     0.1041     2.6595    834.615
   3300.500     30.177     0.1014     2.6263    584.398
   3301.000     30.419     0.0982     2.7809    639.652
   3301.500     16.074     0.1385     2.7529    740.094
   3302.000     27.822     0.1029     2.6114    530.285
   3302.500     24.382     0.0876     2.7271    378.865
   3303.000     30.851     0.1043     2.6132    202.576
   3303.500     34.011     0.1181     2.6759    613.901
   3304.000     32.010     0.1534     2.7635    481.238
   3304.500     30.923     0.1715     2.7273    379.183
   3305.000     25.015     0.1162     2.7303    672.742
   3305.500     39.022     0.1441     2.6589    891.776
   3306.000     31.377     0.1407     2.6452    127.335
   3306.500     19.052     0.0978     2.6656    302.622
   3307.000     33.345     0.1650     2.7031    258.924
   3307.500     25.951     0.0849     2.6478    637.529
   3308.000     27.385     0.1917     2.7242    858.095
   3308.500     25.114     0.1585     2.7299    733.153
   3309.000     13.661     0.1108     2.7589    540.875
   3309.500     23.023     0.1010     2.6379    450.410
   3310.000     30.644     0.1036     2.7622    621.724
   3310.500     23.274     0.1757     2.7578    378.551
   3311.000     26.013     0.1889     2.7841    672.277
   3311.500     14.571     0.1327     2.6552    339.674
   3312.000     37.694     0.1924     2.6724    320.963
   3312.500     17.807     0.1237     2.6964    153.880
   3313.000     19.636     0.1749     2.6320    323.593
   3313.500     17.484     0.1436     2.6719    473.522
   3314.000     41.453     0.1687     2.7878    782.994
   3314.500     22.121     0.1516     2.6944    715.796
   3315.000     28.117     0.1682     2.6604    805.992
   3315.500     27.585     0.1354     2.5920    328.462
   3316.000     34.455     0.1533     2.5945    685.004
   3316.500     41.990     0.1495     2.6770    216.005
   3317.000     38.393     0.1681     2.7698    289.057
   3317.500     30.651     0.0920     2.6312    254.149
   3318.000     25.218     0.0898     2.7383    805.328
   3318.500     17.141     0.1713     2.6556    774.237
   3319.000     33.357     0.1820     2.7206    392.463
   3319.500     24.072     0.1608     2.6121    895.569
   3320.000     38.802     0.1901     2.7765    695.991
   3320.500     17.768     0.1691     2.6875    734.308
   3321.000     17.424     0.1616     2.6572    645.111
   3321.500     38.799     0.1440     2.6303    562.708
   3322.000     29.642     0.1173     2.7789    272.553
   3322.500     30.977     0.1686     2.7137    872.474
   3323.000     24.747     0.1596     2.6747    450.525
   3323.500     16.290     0.1098     2.7363    775.125
   3324.000     21.699     0.1147     2.7492    398.074
   3324.500     16.964     0.1827     2.6173    350.967
   3325.000     21.804     0.1921     2.6913    360.750
   3325.500     38.163     0.1067     2.7108    184.096
   3326.000     35.445     0.1217     2.6376    168.541
   3326.500     25.529     0.1703     2.6479    203.520
   3327.000     21.190     0.1770     2.7662    222.659
   3327.500     19.351     0.1305     2.7409    490.790
   3328.000     26.304     0.0946     2.7400    404.449
   3328.500     24.547     0.1546     2.7167     97.221
   3329.000     28.810     0.2016     2.7552    824.529
   3329.500     28.339     0.1468     2.7275    803.415
   3330.000     18.948     0.1935     2.6890    810.368
   3330.500     33.150     0.1171     2.7637    466.479
   3331.000     26.723     0.1664     2.7043    612.157
   3331.500     31.277     0.1453     2.6391    650.800
   3332.000     21.215     0.1668     2.6396    608.635
   3332.500     28.511     0.1543     2.6521    392.617
   3333.000     17.212     0.1302     2.6687    336.896
   3333.500     32.541     0.1521     2.6939    887.163
   3334.000     31.831     0.1300     2.6962    237.921
   3334.500     15.563     0.1728     2.6024    442.487
   3335.000     20.338     0.1590     2.7551    689.128
   3335.500     24.077     0.1971     2.7818    599.986
   3336.000     21.687     0.1085     2.7071    508.260
   3336.500     25.050     0.1618     2.7216    577.617
   3337.000     34.984     0.0993     2.6987    774.348
   3337.500     21.835     0.0797     2.6414    803.391
   3338.000     38.923     0.1903     2.7632    519.403
   3338.500     26.527     0.1417     2.7633    353.315
   3339.000     18.234     0.1743     2.6841    521.161
   3339.500     17.858     0.0878     2.7717    577.855
   3340.000     39.179     0.0907     2.6036    470.377
   3340.500     34.322     0.1957     2.6936    188.126
   3341.000     15.423     0.1252     2.7839    558.091
   3341.500     21.810     0.1458     2.7645    484.320
   3342.000     20.639     0.1884     2.6074    331.338
   3342.500     35.718     0.1722     2.6557    104.666
   3343.000     35.483     0.0906     2.6326    731.201
   3343.500     15.752     0.1092     2.6424    653.480
   3344.000     12.494     0.1378     2.7363    664.288
   3344.500     22.375     0.1152     2.6252    367.729
   3345.000     34.825     0.0773     2.6829    574.077
   3345.500     17.356     0.1717     2.7004    712.106
   3346.000     15.260     0.1314     2.6796    523.457
   3346.500     28.871     0.1603     2.6629    462.012
   3347.000     34.411     0.1487     2.6544    358.503
   3347.500     30.719     0.1492     2.7366    865.592
   3348.000     19.120     0.1769     2.7291    875.445
   3348.500     19.972     0.1648     2.7091    337.639
   3349.000     33.300     0.0978     2.7381    555.251
   3349.500     17.373     0.1611     2.6133    488.548
   3350.000     15.762     0.1543     2.6751    871.096
   3350.500     25.417     0.1826     2.7467    141.073
   3351.000     29.329     0.1552     2.6018    239.593
   3351.500     24.131     0.1208     2.6444    437.983
   3352.000     23.420     0.1047     2.6632    432.544
   3352.500     27.509     0.1329     2.6736    825.454
   3353.000     27.830     0.1646     2.6983    563.556
   3353.500     26.915     0.1420     2.6624    811.298
   3354.000     19.918     0.0969     2.7627    622.560
   3354.500     31.440     0.1828     2.7694    260.402
   3355.000     32.362     0.2026     2.6908    236.300
   3355.500     12.866     0.1571     2.6622    382.314
   3356.000     28.684     0.1660     2.7367    168.950
   3356.500     37.841     0.1170     2.6347    699.414
   3357.000     36.116     0.1765     2.6135    520.425
   3357.500     23.893     0.1592     2.5952    283.470
