~VERSION INFORMATION
 VERS.                    2.0 : CWLS Log ASCII Standard - VERSION 2.0
 WRAP.                     NO : ONE LINE PER DEPTH STEP

~WELL INFORMATION
 WELL.              Well-Beta : WELL NAME
 FLD .                FIELD-A : FIELD NAME
 LOC .         SEC 12 T5N R6E : LOCATION
 CTRY.                    USA : COUNTRY
 SRVC.           SYNTH LOGGER : SERVICE COMPANY
 DATE.              2024-01-15 : LOG DATE
 UWI .       30-045-20130-00-00 : UNIQUE WELL ID

~CURVE INFORMATION
 DEPT.M                      : DEPTH
 GR  .GAPI                   : GAMMA RAY
 NPHI.V/V                    : NEUTRON POROSITY
 RHOB.G/CC                   : BULK DENSITY
 RT  .OHMM                   : TRUE RESISTIVITY

~PARAMETER INFORMATION
 STRT.M            2500.00 : START DEPTH
 STOP.M            4000.50 : STOP DEPTH
 STEP.M                  0.5 : STEP
 NULL.              -999.25 : NULL VALUE

~ASCII LOG DATA
# ...
   3715.500     30.821     0.0880     2.6328     89.486
   3716.000     20.680     0.1005     2.6467    560.084
   3716.500     18.116     0.1546     2.7828    624.539
   3717.000     40.709     0.1048     2.7638    655.264
   3717.500     18.294     0.1390     2.7346    666.385
   3718.000     21.658     0.1930     2.6592    270.004
   3718.500     17.175     0.1073     2.6273    483.089
   3719.000     16.155     0.1650     2.7590    418.959
   3719.500     29.248     0.1341     2.6654    735.646
   3720.000     41.088     0.1701     2.6930    102.869
   3720.500     17.936     0.1266     2.6208    546.877
   3721.000     38.234     0.1127     2.7499    283.444
   3721.500     24.919     0.1091     2.7302    607.872
   3722.000     18.103     0.1895     2.6583    871.663
   3722.500     15.492     0.1334     2.7159    327.379
   3723.000     29.155     0.1149     2.6711    886.657
   3723.500     15.407     0.0857     2.7724    357.683
   3724.000     16.880     0.1124     2.7219    613.909
   3724.500     22.715     0.1502     2.6601    461.849
   3725.000     39.966     0.1102     2.7173    720.387
   3725.500     21.401     0.1475     2.6592    469.353
   3726.000     21.069     0.1662     2.6633    710.137
   3726.500     26.078     0.1899     2.6356    456.459
   3727.000     25.989     0.0873     2.7149    834.986
   3727.500     40.779     0.1725     2.6683    317.382
   3728.000     29.063     0.1671     2.6213    734.275
   3728.500     25.390     0.1346     2.6896    154.500
   3729.000     26.503     0.1700     2.7097    318.106
   3729.500     14.831     0.1633     2.6081    716.014
   3730.000     40.996     0.1468     2.7604    719.355
   3730.500     24.125     0.1300     2.6458    803.673
   3731.000     29.990     0.1105     2.6939    144.012
   3731.500     22.146     0.1270     2.7233    308.511
   3732.000     24.694     0.1599     2.7636    239.801
   3732.500     38.888     0.1487     2.6204    529.817
   3733.000     24.054     0.1150     2.7715    824.108
   3733.500     38.352     0.1005     2.7621    832.840
   3734.000     20.788     0.1584     2.7078    558.725
   3734.500     23.345     0.1580     2.6280    141.958
   3735.000     31.170     0.1576     2.7642    759.404
   3735.500     22.223     0.1144     2.6120    617.390
   3736.000     36.761     0.0790     2.7104    523.428
   3736.500     34.846     0.0886     2.7688    384.073
   3737.000     26.978     0.1176     2.6069    390.223
   3737.500     32.863     0.0999     2.6244    879.591
   3738.000     20.209     0.1241     2.7215    250.543
   3738.500     17.541     0.0898     2.6123    339.439
   3739.000     15.255     0.1303     2.6745    476.909
   3739.500     35.718     0.1244     2.6759    307.551
   3740.000     28.868     0.1845     2.6528    228.884
   3740.500     30.150     0.1102     2.6988    580.867
   3741.000     37.197     0.1015     2.7199    582.208
   3741.500     36.325     0.1441     2.6387    875.997
   3742.000     22.272     0.1699     2.6959    590.574
   3742.500     31.573     0.1780     2.6436    182.112
   3743.000     24.294     0.1381     2.6916     94.061
   3743.500     34.189     0.1166     2.6605    758.017
   3744.000     38.312     0.1580     2.6820    788.614
   3744.500     33.329     0.0800     2.7305    232.626
   3745.000     36.074     0.1209     2.6087    781.214
   3745.500     38.125     0.1965     2.6973    117.835
   3746.000     23.469     0.1578     2.7388    408.925
   3746.500     29.030     0.1525     2.6798    749.151
   3747.000     24.972     0.1421     2.6726    873.063
   3747.500     37.576     0.1691     2.6912    872.040
   3748.000     31.181     0.0883     2.6630    121.088
   3748.500     32.654     0.1303     2.6337    121.749
   3749.000     35.412     0.1640     2.6799    513.734
   3749.500     30.115     0.0980     2.6664    252.977
   3750.000     30.774     0.1447     2.6870    399.354
   3750.500     20.956     0.1035     2.6472    552.385
   3751.000     34.717     0.1697     2.7684    261.125
   3751.500     24.351     0.1769     2.7739    440.186
   3752.000     23.696     0.1022     2.6298    447.968
   3752.500     36.362     0.1830     2.6397    387.121
   3753.000     18.347     0.1797     2.7237    146.218
   3753.500     17.518     0.1712     2.7371    320.977
   3754.000     27.273     0.1348     2.7609     99.986
   3754.500     13.448     0.1894     2.6172    880.282
   3755.000     35.433     0.1353     2.6733    469.596
   3755.500     36.561     0.1841     2.7060    771.900
   3756.000     38.041     0.1256     2.7193    374.740
   3756.500     25.791     0.1582     2.6702    797.783
   3757.000     18.927     0.1770     2.7267    612.969
   3757.500     40.116     0.1374     2.6973    239.773
   3758.000     31.166     0.1645     2.6069    655.741
   3758.500     31.344     0.1997     2.7441    710.296
   3759.000     37.411     0.1212     2.7359    292.637
   3759.500     17.829     0.1320     2.7660    180.184
   3760.000     16.922     0.1957     2.6999    768.374
   3760.500     29.422     0.0886     2.7571    257.435
   3761.000     38.077     0.1038     2.6624    424.960
   3761.500     18.750     0.0884     2.6266    772.044
   3762.000     27.730     0.0847     2.6090    635.625
   3762.500     37.935     0.1003     2.6040    421.406
   3763.000     22.018     0.1462     2.7645    358.872
   3763.500     35.975     0.1822     2.7893    585.450
   3764.000     27.382     0.1706     2.7152    247.630
   3764.500     13.637     0.1772     2.6800    331.692
   3765.000     22.160     0.1785     2.7188    374.186
   3765.500     26.045     0.1413     2.7664     98.972
   3766.000     24.258     0.1046     2.6328    548.144
   3766.500     24.980     0.1287     2.7174    148.621
   3767.000     28.675     0.1203     2.5939    527.952
   3767.500     33.467     0.1100     2.7252    689.279
   3768.000     39.159     0.0851     2.6975    705.339
   3768.500     28.455     0.1006     2.6990    422.610
   3769.000     30.262     0.1507     2.6282    879.705
   3769.500     30.434     0.1211     2.6292    392.805
   3770.000     21.877     0.1875     2.6607    868.820
   3770.500     35.134     0.1914     2.6794    369.292
   3771.000     32.608     0.1073     2.7503    593.234
   3771.500     21.806     0.1695     2.6690    749.333
   3772.000     40.315     0.1867     2.7772    102.491
   3772.500     15.378     0.1781     2.6494    567.354
   3773.000     18.746     0.1657     2.7236    127.507
   3773.500     29.418     0.1454     2.6063    177.039
   3774.000     37.721     0.1649     2.6318    105.714
   3774.500     35.326     0.2013     2.7701    724.762
   3775.000     25.216     0.1142     2.6556    583.471
   3775.500     27.744     0.1848     2.6647    461.636
   3776.000     36.331     0.1359     2.7194    515.176
   3776.500     24.024     0.1480     2.6949    877.209
   3777.000     17.599     0.1794     2.7539    572.678
   3777.500     36.506     0.1629     2.6323    803.812
   3778.000     26.417     0.1260     2.6853    471.950
   3778.500     35.808     0.1414     2.7594    678.513
   3779.000     21.501     0.1497     2.6973    117.270
   3779.500     38.215     0.1066     2.7513    568.865
   3780.000     32.925     0.1248     2.7539    764.262
   3780.500     17.762     0.1521     2.6051    561.246
   3781.000     21.784     0.0800     2.7676    884.749
   3781.500     29.938     0.0944     2.6214    243.298
   3782.000     33.244     0.1636     2.7436    322.728
   3782.500     24.874     0.1400     2.8023    560.451
   3783.000     21.575     0.1714     2.6484    117.793
   3783.500     20.404     0.1907     2.7440    268.996
   3784.000     17.318     0.1373     2.6010    555.286
   3784.500     33.492     0.1846     2.6855    510.617
   3785.000     33.285     0.1578     2.6274    236.395
   3785.500     39.576     0.1202     2.6239    532.838
   3786.000     32.701     0.1412     2.7211    131.378
   3786.500     27.201     0.1414     2.7376    292.806
