~VERSION INFORMATION
 VERS.                    2.0 : CWLS Log ASCII Standard - VERSION 2.0
 WRAP.                     NO : ONE LINE PER DEPTH STEP

~WELL INFORMATION
 WELL.              Well-Beta : WELL NAME
 FLD .                FIELD-A : FIELD NAME
 LOC .         SEC 12 T5N R6E : LOCATION
 CTRY.                    USA : COUNTRY
 SRVC.           SYNTH LOGGER : SERVICE COMPANY
 DATE.              2024-01-15 : LOG DATE
 UWI .       30-045-20130-00-00 : UNIQUE WELL ID

~CURVE INFORMATION
 DEPT.M                      : DEPTH
 GR  .GAPI                   : GAMMA RAY
 NPHI.V/V                    : NEUTRON POROSITY
 RHOB.G/CC                   : BULK DENSITY
 RT  .OHMM                   : TRUE RESISTIVITY

~PARAMETER INFORMATION
 STRT.M            2500.00 : START DEPTH
 STOP.M            4000.50 : STOP DEPTH
 STEP.M                  0.5 : STEP
 NULL.              -999.25 : NULL VALUE

~ASCII LOG DATA
# ...
   2786.000     20.270     0.1754     2.7130    692.529
   2786.500     24.437     0.1010     2.7594    501.297
   2787.000     26.335     0.1867     2.7001    503.921
   2787.500     31.606     0.1578     2.6028    422.994
   2788.000     20.003     0.0968     2.7725    276.942
   2788.500     25.366     0.1922     2.7033    244.178
   2789.000     16.219     0.1193     2.6912    550.246
   2789.500     26.455     0.1849     2.6753    262.499
   2790.000     14.558     0.1237     2.6521    306.076
   2790.500     20.904     0.1711     2.7391    132.810
   2791.000     15.252     0.1958     2.7716    135.814
   2791.500     40.128     0.0914     2.7213    269.406
   2792.000     18.089     0.1843     2.7331    232.728
   2792.500     30.271     0.1074     2.7232    813.760
   2793.000     17.935     0.1470     2.7383    424.498
   2793.500     26.808     0.1724     2.6042    704.968
   2794.000     35.339     0.1635     2.7606    814.608
   2794.500     19.669     0.1267     2.7701    649.995
   2795.000     36.718     0.0833     2.6302    207.413
   2795.500     25.859     0.1313     2.6958    486.927
   2796.000     19.522     0.0892     2.7540    310.109
   2796.500     20.540     0.1934     2.6888    624.672
   2797.000     27.675     0.1068     2.6482    503.128
   2797.500     36.880     0.0996     2.7532    316.817
   2798.000     20.676     0.1760     2.7706    553.274
   2798.500     21.544     0.0859     2.7539    304.963
   2799.000     27.448     0.1332     2.6662    629.675
   2799.500     36.382     0.1148     2.7106     94.376
   2800.000     35.776     0.1113     2.6418     88.719
   2800.500     30.064     0.0829     2.7042    775.279
   2801.000     18.795     0.1307     2.6779    726.190
   2801.500     30.175     0.1144     2.7433    707.362
   2802.000     39.269     0.0885     2.7083    803.694
   2802.500     30.399     0.1646     2.6617    735.242
   2803.000     30.970     0.1206     2.7125    314.198
   2803.500     38.473     0.1934     2.6940    807.857
   2804.000     17.684     0.1359     2.7141    621.781
   2804.500     15.801     0.1539     2.7016    444.295
   2805.000     37.215     0.1060     2.7460    861.317
   2805.500     24.191     0.1783     2.7038    283.888
   2806.000     27.827     0.1343     2.6810    449.366
   2806.500     25.668     0.0880     2.6814    416.934
   2807.000     25.182     0.1323     2.6530    205.795
   2807.500     32.474     0.1946     2.6876    747.095
   2808.000     21.696     0.1733     2.6839    652.897
   2808.500     27.342     0.0802     2.7010    348.714
   2809.000     35.710     0.1588     2.7411    459.022
   2809.500     40.141     0.2081     2.7550    560.322
   2810.000     15.684     0.1238     2.6329    358.908
   2810.500     26.098     0.1441     2.7407    226.868
   2811.000     28.409     0.1949     2.7763    574.711
   2811.500     19.244     0.1733     2.7772    573.600
   2812.000     33.156     0.2028     2.6377    540.675
   2812.500     29.458     0.1351     2.7529    853.424
   2813.000     38.533     0.1338     2.6225    769.038
   2813.500     38.582     0.1236     2.6046    247.227
   2814.000     32.681     0.1660     2.7076    131.411
   2814.500     27.426     0.1522     2.7525    345.601
   2815.000     30.678     0.1780     2.7508    871.817
   2815.500     26.871     0.0994     2.6339    404.939
   2816.000     14.971     0.1172     2.6307    422.653
   2816.500     18.837     0.0886     2.6701    843.025
   2817.000     38.155     0.0854     2.6274    261.251
   2817.500     24.824     0.1199     2.6330    788.945
   2818.000     28.135     0.1077     2.6224    814.879
   2818.500     28.596     0.1700     2.7582    885.288
   2819.000     20.824     0.0763     2.7085    454.899
   2819.500     31.123     0.1738     2.7380    583.895
   2820.000     30.293     0.1720     2.7420    508.006
   2820.500     19.665     0.1622     2.6195    143.870
   2821.000     31.902     0.1376     2.6223    564.944
   2821.500     31.923     0.0839     2.6457    323.978
   2822.000     31.022     0.1454     2.6853    244.332
   2822.500     38.835     0.1351     2.7259    782.365
   2823.000     18.401     0.1360     2.7206    550.535
   2823.500     22.555     0.1509     2.7279    283.450
   2824.000     35.200     0.0818     2.6139    577.490
   2824.500     20.810     0.1586     2.6744    422.288
   2825.000     37.791     0.1420     2.6321    884.091
   2825.500     36.764     0.1624     2.6187    818.916
   2826.000     23.219     0.1341     2.7283    374.076
   2826.500     40.371     0.1150     2.7347     78.789
   2827.000     31.539     0.1612     2.6336    440.959
   2827.500     22.018     0.1919     2.5871    632.045
   2828.000     39.849     0.1831     2.6980    409.409
   2828.500     21.928     0.0990     2.7852    180.314
   2829.000     35.183     0.1070     2.7524    753.099
   2829.500     31.141     0.1797     2.7353    567.817
   2830.000     35.896     0.1357     2.7661    634.408
   2830.500     25.776     0.1295     2.6127    458.255
   2831.000     28.148     0.1120     2.7607    469.465
   2831.500     13.150     0.1615     2.6769    755.756
   2832.000     34.010     0.1031     2.6343    898.582
   2832.500     19.593     0.1514     2.7493    573.140
   2833.000     26.753     0.0920     2.6669    269.114
   2833.500     23.093     0.1545     2.6827    141.360
   2834.000     38.583     0.1815     2.7737    708.155
   2834.500     18.885     0.0889     2.7848    558.379
   2835.000     37.708     0.0878     2.6685    660.733
   2835.500     19.238     0.1386     2.6184    436.406
   2836.000     34.556     0.0912     2.6804    156.880
   2836.500     19.475     0.1748     2.6188    805.848
   2837.000     36.667     0.0869     2.6383    448.774
   2837.500     33.766     0.1823     2.7829    369.697
   2838.000     37.266     0.1088     2.7652    664.575
   2838.500     12.290     0.0991     2.6600    633.087
   2839.000     22.291     0.1682     2.6264    109.205
   2839.500     29.346     0.0905     2.6296    696.053
   2840.000     20.759     0.1546     2.7128    385.274
   2840.500     20.580     0.1396     2.7794    792.165
   2841.000     35.704     0.1432     2.6943    297.182
   2841.500     33.608     0.1544     2.7346     85.740
   2842.000     20.822     0.1210     2.6134    149.520
   2842.500     24.130     0.1008     2.6817    289.773
   2843.000     35.275     0.1651     2.7151    150.669
   2843.500     33.489     0.1282     2.6832    159.565
   2844.000     23.748     0.0967     2.7052    806.767
   2844.500     29.550     0.1245     2.6473    146.000
   2845.000     15.462     0.1327     2.7569    157.512
   2845.500     23.317     0.1731     2.7498    878.668
   2846.000     29.042     0.0974     2.6395    176.591
   2846.500     35.273     0.0865     2.7692    330.613
   2847.000     28.780     0.1745     2.6400    679.663
   2847.500     39.128     0.0792     2.7294     98.300
   2848.000     16.280     0.0947     2.6543    848.881
   2848.500     37.498     0.1983     2.6878    554.532
   2849.000     38.276     0.0889     2.6415    303.818
   2849.500     34.240     0.1977     2.6282    383.982
   2850.000     37.658     0.1632     2.6856    838.050
   2850.500     35.746     0.1717     2.6493    106.737
   2851.000     21.187     0.1296     2.6326    728.122
   2851.500     36.601     0.1523     2.7466    648.782
   2852.000     28.771     0.0880     2.6583    768.284
   2852.500     30.269     0.1864     2.6884    582.692
   2853.000     38.891     0.1367     2.6272    178.281
   2853.500     19.975     0.1150     2.5991    790.778
   2854.000     41.085     0.1062     2.7369    831.624
   2854.500     38.330     0.1037     2.7156    510.232
   2855.000     36.917     0.1095     2.7730    672.066
   2855.500     22.896     0.1515     2.7403    161.654
   2856.000     16.864     0.1184     2.7775    190.158
   2856.500     25.845     0.1646     2.7398    659.429
   2857.000     38.217     0.0982     2.7683    393.103
