~VERSION INFORMATION
 VERS.                    2.0 : CWLS Log ASCII Standard - VERSION 2.0
 WRAP.                     NO : ONE LINE PER DEPTH STEP

~WELL INFORMATION
 WELL.              Well-Beta : WELL NAME
 FLD .                FIELD-A : FIELD NAME
 LOC .         SEC 12 T5N R6E : LOCATION
 CTRY.                    USA : COUNTRY
 SRVC.           SYNTH LOGGER : SERVICE COMPANY
 DATE.              2024-01-15 : LOG DATE
 UWI .       30-045-20130-00-00 : UNIQUE WELL ID

~CURVE INFORMATION
 DEPT.M                      : DEPTH
 GR  .GAPI                   : GAMMA RAY
 NPHI.V/V                    : NEUTRON POROSITY
 RHOB.G/CC                   : BULK DENSITY
 RT  .OHMM                   : TRUE RESISTIVITY

~PARAMETER INFORMATION
 STRT.M            2500.00 : START DEPTH
 STOP.M            4000.50 : STOP DEPTH
 STEP.M                  0.5 : STEP
 NULL.              -999.25 : NULL VALUE

~ASCII LOG DATA
# ...
   3358.000     32.718     0.1152     2.7047    704.046
   3358.500     37.295     0.1647     2.7185    266.901
   3359.000     22.361     0.0920     2.7504    340.076
   3359.500     37.542     0.1394     2.7420    745.040
   3360.000     38.523     0.1307     2.6223    316.476
   3360.500     19.389     0.1926     2.6201    274.215
   3361.000     27.261     0.1636     2.6361    648.569
   3361.500     28.571     0.1391     2.6094    529.831
   3362.000     20.571     0.1658     2.7095    190.974
   3362.500     37.942     0.1076     2.6935    415.919
   3363.000     14.862     0.0982     2.7673    483.011
   3363.500     19.338     0.1859     2.6868    563.493
   3364.000     41.335     0.1230     2.7474    578.948
   3364.500     16.981     0.1153     2.6137    352.400
   3365.000     21.974     0.1306     2.6252    419.890
   3365.500     35.920     0.1643     2.6552    648.107
   3366.000     36.878     0.1622     2.6753    100.333
   3366.500     22.031     0.1862     2.6734    186.300
   3367.000     14.027     0.0816     2.6935    132.181
   3367.500     15.915     0.0842     2.7307    814.119
   3368.000     29.970     0.0880     2.6762    171.877
   3368.500     32.708     0.1353     2.7773    843.190
   3369.000     28.062     0.1749     2.7783    218.534
   3369.500     40.565     0.1195     2.6971    536.236
   3370.000     22.716     0.0847     2.6310    661.447
   3370.500     36.840     0.1655     2.6498    137.367
   3371.000     25.255     0.0829     2.5819    876.313
   3371.500     18.528     0.1407     2.7755    470.505
   3372.000     19.807     0.1278     2.6772    532.249
   3372.500     23.996     0.0847     2.6962    537.925
   3373.000     19.243     0.1739     2.7008     87.731
   3373.500     29.690     0.1238     2.6658    392.652
   3374.000     19.913     0.1981     2.6519    797.829
   3374.500     22.207     0.1770     2.6562    237.838
   3375.000     28.012     0.1779     2.7784    773.463
   3375.500     31.005     0.1854     2.7312    629.069
   3376.000     24.953     0.1056     2.6474    675.210
   3376.500     18.472     0.1012     2.6149    662.210
   3377.000     32.293     0.1204     2.6431    491.080
   3377.500     14.314     0.1282     2.6287    553.658
   3378.000     29.698     0.1498     2.6840    733.071
   3378.500     15.994     0.1489     2.7540    509.954
   3379.000     29.986     0.1381     2.6319    134.075
   3379.500     28.854     0.1746     2.6639    441.304
   3380.000     33.783     0.1019     2.7591    697.634
   3380.500     16.719     0.1940     2.6134    642.339
   3381.000     34.333     0.1942     2.7621    573.864
   3381.500     29.986     0.1671     2.7241    279.022
   3382.000     29.201     0.1848     2.7539     91.798
   3382.500     23.604     0.1601     2.7053    698.887
   3383.000     33.669     0.1729     2.6855    367.636
   3383.500     20.467     0.1682     2.7152    329.155
   3384.000     23.308     0.0910     2.7785    852.712
   3384.500     35.219     0.1183     2.7467    379.505
   3385.000     26.691     0.1017     2.7040    402.773
   3385.500     37.376     0.1305     2.7131    771.325
   3386.000     23.840     0.1763     2.6118    185.223
   3386.500     23.487     0.0883     2.6597    865.812
   3387.000     22.748     0.1957     2.6374    709.657
   3387.500     26.603     0.1673     2.6681    588.460
   3388.000     21.507     0.1502     2.6751    668.363
   3388.500     20.480     0.0914     2.6607    670.871
   3389.000     35.974     0.1441     2.6558    611.074
   3389.500     23.605     0.1466     2.7472    536.834
   3390.000     26.129     0.1243     2.7410    862.706
   3390.500     37.375     0.0938     2.6858    845.261
   3391.000     32.648     0.1524     2.6391    105.848
   3391.500     40.956     0.1670     2.7532    123.888
   3392.000     26.283     0.1025     2.7228    488.306
   3392.500     33.885     0.0948     2.6233    542.089
   3393.000     11.868     0.1687     2.6922    851.688
   3393.500     27.746     0.1232     2.7453    680.812
   3394.000     23.391     0.1351     2.6112    824.549
   3394.500     32.147     0.1768     2.7867    739.820
   3395.000     19.918     0.1001     2.6525    109.551
   3395.500     22.299     0.1318     2.7569    883.489
   3396.000     26.865     0.1067     2.7430    821.181
   3396.500     29.820     0.1517     2.6915    439.521
   3397.000     18.966     0.1534     2.7423    405.396
   3397.500     34.173     0.1346     2.7217    708.221
   3398.000     36.681     0.1491     2.7573    823.285
   3398.500     16.309     0.1940     2.6481    373.946
   3399.000     19.963     0.1719     2.6184    299.944
   3399.500     28.493     0.1295     2.6752    343.092
   3400.000     14.179     0.0919     2.7389    129.556
   3400.500     21.574     0.0805     2.6330    270.157
   3401.000     30.696     0.1494     2.6038    376.911
   3401.500     28.412     0.1572     2.6939    708.345
   3402.000     16.484     0.1684     2.7388    542.973
   3402.500     24.123     0.1974     2.6535    159.983
   3403.000     32.152     0.1775     2.7520    847.806
   3403.500     40.362     0.0899     2.6523    314.289
   3404.000     38.244     0.0901     2.6917    188.373
   3404.500     22.365     0.1425     2.7328    418.064
   3405.000     17.166     0.1852     2.6213    351.982
   3405.500     23.439     0.1231     2.7051    863.158
   3406.000     31.559     0.1276     2.6624    227.303
   3406.500     22.234     0.0930     2.6593    727.615
   3407.000     31.286     0.0926     2.7782    722.837
   3407.500     36.307     0.1628     2.7113    729.759
   3408.000     30.031     0.1279     2.7154    709.251
   3408.500     17.383     0.1178     2.6027    710.316
   3409.000     30.951     0.1596     2.6345    661.136
   3409.500     23.608     0.1417     2.7566    716.804
   3410.000     16.878     0.1154     2.7040    773.867
   3410.500     35.181     0.1654     2.7526    888.009
   3411.000     36.003     0.1374     2.6671    812.612
   3411.500     19.747     0.1354     2.6120    105.302
   3412.000     27.799     0.1842     2.7253    189.288
   3412.500     23.027     0.0781     2.7260    228.886
   3413.000     28.442     0.1796     2.6279    866.340
   3413.500     21.622     0.0987     2.6138    249.935
   3414.000     17.101     0.1818     2.6820    737.326
   3414.500     29.875     0.1817     2.6516    117.357
   3415.000     14.404     0.1489     2.6205    330.057
   3415.500     24.810     0.1942     2.7660     83.109
   3416.000     22.718     0.1154     2.7328    566.608
   3416.500     36.641     0.1909     2.6788    618.930
   3417.000     25.536     0.0883     2.6462    195.102
   3417.500     21.759     0.1879     2.5980    429.240
   3418.000     31.573     0.1764     2.6800    753.018
   3418.500     17.892     0.1523     2.6515    245.967
   3419.000     37.038     0.1376     2.7094    285.390
   3419.500     17.919     0.1693     2.6909    498.377
   3420.000     39.773     0.1021     2.7319    744.582
   3420.500     28.383     0.0780     2.6906    139.512
   3421.000     26.023     0.1133     2.7209    775.926
   3421.500     31.306     0.1020     2.7391    809.187
   3422.000     32.372     0.1895     2.6908    417.933
   3422.500     28.428     0.1842     2.6882    208.870
   3423.000     23.865     0.1691     2.6994    679.042
   3423.500     30.204     0.1874     2.6410    290.966
   3424.000     27.009     0.1822     2.6364    848.434
   3424.500     27.821     0.1207     2.7050    201.226
   3425.000     22.747     0.1130     2.7575    206.115
   3425.500     29.138     0.1523     2.7660    170.178
   3426.000     36.289     0.1549     2.6964    665.072
   3426.500     24.057     0.0763     2.7480    741.888
   3427.000     23.438     0.1601     2.6839    702.105
   3427.500     22.643     0.1602     2.5975    182.448
   3428.000     31.043     0.1443     2.7169    682.648
   3428.500     35.882     0.1393     2.6288    444.592
   3429.000     15.954     0.1911     2.6751    195.338
