~VERSION INFORMATION
 VERS.                    2.0 : CWLS Log ASCII Standard - VERSION 2.0
 WRAP.                     NO : ONE LINE PER DEPTH STEP

~WELL INFORMATION
 WELL.              Well-Beta : WELL NAME
 FLD .                FIELD-A : FIELD NAME
 LOC .         SEC 12 T5N R6E : LOCATION
 CTRY.                    USA : COUNTRY
 SRVC.           SYNTH LOGGER : SERVICE COMPANY
 DATE.              2024-01-15 : LOG DATE
 UWI .       30-045-20130-00-00 : UNIQUE WELL ID

~CURVE INFORMATION
 DEPT.M                      : DEPTH
 GR  .GAPI                   : GAMMA RAY
 NPHI.V/V                    : NEUTRON POROSITY
 RHOB.G/CC                   : BULK DENSITY
 RT  .OHMM                   : TRUE RESISTIVITY

~PARAMETER INFORMATION
 STRT.M            2500.00 : START DEPTH
 STOP.M            4000.50 : STOP DEPTH
 STEP.M                  0.5 : STEP
 NULL.              -999.25 : NULL VALUE

~ASCII LOG DATA
# ...
   3000.500     81.364     0.3562     2.5122      4.642
   3001.000     76.220     0.3516     2.5334      6.005
   3001.500     85.854     0.3702     2.3883      7.347
   3002.000     97.531     0.3979     2.5451      4.214
   3002.500     80.372     0.3427     2.5083      6.657
   3003.000     90.405     0.2992     2.5039      7.024
   3003.500    104.597     0.3145     2.4298      6.101
   3004.000     78.092     0.3303     2.4375      1.946
   3004.500     94.029     0.3468     2.4297      1.769
   3005.000     97.771     0.3915     2.5364      5.897
   3005.500     87.775     0.3180     2.5119      5.607
   3006.000     97.230     0.4015     2.4903      5.710
   3006.500     86.869     0.3549     2.4001      8.372
   3007.000    109.079     0.3274     2.3901      5.322
   3007.500     78.110     0.3764     2.3937      7.336
   3008.000     76.045     0.3470     2.5490      0.909
   3008.500     97.323     0.3300     2.4882      2.682
   3009.000     85.240     0.3890     2.5262      4.178
   3009.500     94.237     0.2957     2.4192      7.541
   3010.000     90.801     0.3773     2.4977      3.896
   3010.500     91.648     0.3252     2.5444      2.494
   3011.000    109.284     0.3809     2.3900      5.275
   3011.500    105.650     0.3299     2.4757      1.891
   3012.000     79.053     0.3040     2.4824      5.485
   3012.500     76.511     0.3037     2.4436      1.747
   3013.000     73.608     0.2955     2.5044      6.014
   3013.500    108.096     0.3893     2.4535      8.809
   3014.000     77.022     0.3434     2.4290      5.476
   3014.500    103.511     0.3311     2.5361      4.938
   3015.000     79.136     0.2838     2.4798      3.671
   3015.500    110.695     0.3244     2.4596      4.101
   3016.000     97.685     0.3388     2.4593      6.767
   3016.500     87.324     0.3353     2.5228      2.621
   3017.000     96.382     0.3118     2.4567      2.140
   3017.500    103.299     0.3300     2.5239      1.266
   3018.000    103.516     0.2965     2.3834      0.500
   3018.500     86.438     0.3204     2.3752      4.147
   3019.000    103.958     0.2935     2.4691      4.964
   3019.500     96.146     0.3932     2.3864      4.708
   3020.000    105.994     0.3001     2.4741      1.280
   3020.500     86.207     0.4003     2.4424      2.499
   3021.000    101.459     0.2969     2.4969      7.422
   3021.500     79.221     0.3870     2.3887      5.132
   3022.000     83.568     0.3347     2.4559      2.563
   3022.500    107.986     0.2940     2.4533      6.646
   3023.000     97.994     0.2846     2.4693      6.051
   3023.500     82.813     0.2940     2.5029      2.954
   3024.000     74.926     0.3396     2.5149      2.065
   3024.500     85.528     0.3872     2.4365      3.005
   3025.000     90.002     0.3506     2.4067      0.770
   3025.500    107.302     0.3945     2.4320      7.922
   3026.000    101.441     0.3282     2.4344      1.326
   3026.500     96.135     0.3251     2.5021      8.748
   3027.000     76.420     0.3341     2.4778      1.880
   3027.500     92.937     0.3868     2.4095      4.873
   3028.000     87.994     0.3363     2.4222      0.511
   3028.500     87.761     0.3629     2.4171      4.214
   3029.000     85.715     0.3359     2.4971      8.357
   3029.500     82.925     0.3090     2.4597      1.146
   3030.000    105.257     0.2972     2.5012      3.667
   3030.500    105.354     0.2952     2.4786      7.505
   3031.000    102.352     0.3612     2.4792      2.763
   3031.500     89.154     0.2837     2.5341      6.928
   3032.000     96.332     0.3100     2.4579      3.600
   3032.500     89.565     0.3542     2.5245      6.203
   3033.000     89.159     0.3341     2.5246      4.231
   3033.500    106.773     0.3894     2.5041      2.075
   3034.000    107.927     0.2992     2.4183      3.366
   3034.500    107.796     0.3989     2.4401      3.096
   3035.000    101.368     0.3333     2.4288      8.773
   3035.500     80.873     0.3577     2.5306      6.753
   3036.000     98.448     0.3591     2.4170      5.420
   3036.500    103.764     0.3885     2.3761      1.906
   3037.000     79.572     0.2876     2.4715      1.315
   3037.500     76.221     0.3580     2.4758      1.074
   3038.000     96.490     0.3304     2.4699      4.928
   3038.500     93.135     0.3926     2.4855      0.993
   3039.000     80.115     0.3985     2.4008      1.696
   3039.500    104.962     0.3758     2.4971      5.359
   3040.000     85.039     0.3992     2.3846      1.814
   3040.500    105.904     0.3113     2.4556      3.547
   3041.000     98.279     0.3291     2.4276      1.789
   3041.500     76.393     0.2920     2.5230      8.279
   3042.000    109.806     0.3200     2.4149      3.507
   3042.500     88.547     0.3437     2.4782      0.500
   3043.000    100.566     0.3385     2.4000      5.006
   3043.500     88.263     0.3507     2.4989      2.001
   3044.000     81.727     0.3084     2.4177      8.070
   3044.500     86.816     0.2913     2.3819      6.086
   3045.000     78.615     0.3968     2.4679      6.564
   3045.500     86.508     0.3136     2.4980      3.330
   3046.000    102.645     0.3109     2.5145      1.994
   3046.500     99.266     0.3057     2.5222      6.553
   3047.000    105.827     0.3540     2.3878      4.027
   3047.500    104.095     0.3989     2.4167      5.680
   3048.000     78.885     0.3606     2.4640      5.428
   3048.500     99.180     0.3079     2.4080      5.105
   3049.000     88.800     0.4039     2.4824      6.559
   3049.500     99.669     0.3864     2.5253      5.741
   3050.000     98.781     0.3411     2.5450      5.053
   3050.500     96.187     0.3327     2.4438      7.917
   3051.000     76.587     0.3250     2.4022      8.002
   3051.500     83.044     0.3526     2.3982      2.671
   3052.000     83.034     0.2783     2.5182      3.683
   3052.500     82.954     0.3456     2.4511      2.970
   3053.000     74.975     0.2825     2.4949      3.908
   3053.500     78.868     0.2940     2.3917      7.473
   3054.000     91.374     0.3052     2.4938      1.419
   3054.500     99.731     0.3331     2.5067      0.758
   3055.000     97.013     0.3626     2.4296      1.341
   3055.500     73.534     0.2774     2.4306      1.960
   3056.000     83.529     0.2961     2.4885      4.548
   3056.500    108.781     0.3194     2.4150      7.639
   3057.000     93.111     0.3684     2.3961      6.212
   3057.500     90.016     0.3289     2.4850      2.410
   3058.000    100.336     0.3120     2.3982      3.485
   3058.500     91.686     0.3727     2.4293      3.777
   3059.000     74.326     0.3472     2.4363      3.183
   3059.500     90.329     0.3412     2.5160      6.872
   3060.000     99.730     0.3299     2.3964      4.996
   3060.500     84.249     0.3302     2.4915      4.218
   3061.000     87.468     0.3869     2.4505      7.813
   3061.500     74.860     0.3355     2.5387      3.791
   3062.000     85.131     0.3586     2.5242      5.368
   3062.500     95.906     0.3280     2.5400      6.270
   3063.000     85.020     0.3446     2.3901      6.478
   3063.500     98.299     0.3026     2.4787      6.253
   3064.000     88.038     0.3393     2.3782      8.132
   3064.500     78.537     0.2938     2.5367      0.500
   3065.000    101.643     0.3925     2.4701      4.572
   3065.500    101.835     0.3809     2.5196      7.707
   3066.000     93.755     0.3934     2.4862      8.910
   3066.500     76.616     0.3424     2.5430      3.178
   3067.000     95.435     0.3589     2.5471      4.978
   3067.500     79.781     0.3450     2.4841      2.669
   3068.000     79.094     0.3363     2.4202      2.392
   3068.500     80.980     0.3462     2.4694      8.320
   3069.000    100.439     0.3379     2.4350      0.500
   3069.500     94.535     0.3182     2.5477      0.500
   3070.000     79.157     0.3648     2.5140      4.923
   3070.500     83.001     0.3774     2.5411      3.371
   3071.000    100.298     0.2849     2.4883      6.504
   3071.500    102.436     0.3180     2.4627      2.691
