~VERSION INFORMATION
 VERS.                    2.0 : CWLS Log ASCII Standard - VERSION 2.0
 WRAP.                     NO : ONE LINE PER DEPTH STEP

~WELL INFORMATION
 WELL.              Well-Beta : WELL NAME
 FLD .                FIELD-A : FIELD NAME
 LOC .         SEC 12 T5N R6E : LOCATION
 CTRY.                    USA : COUNTRY
 SRVC.           SYNTH LOGGER : SERVICE COMPANY
 DATE.              2024-01-15 : LOG DATE
 UWI .       30-045-20130-00-00 : UNIQUE WELL ID

~CURVE INFORMATION
 DEPT.M                      : DEPTH
 GR  .GAPI                   : GAMMA RAY
 NPHI.V/V                    : NEUTRON POROSITY
 RHOB.G/CC                   : BULK DENSITY
 RT  .OHMM                   : TRUE RESISTIVITY

~PARAMETER INFORMATION
 STRT.M            2500.00 : START DEPTH
 STOP.M            4000.50 : STOP DEPTH
 STEP.M                  0.5 : STEP
 NULL.              -999.25 : NULL VALUE

~ASCII LOG DATA
# ...
   3429.500     24.762     0.0977     2.7582    860.891
   3430.000     33.747     0.1202     2.7573    588.415
   3430.500     26.127     0.1222     2.6063    747.991
   3431.000     38.348     0.1371     2.7818    348.014
   3431.500     24.027     0.1156     2.6382    318.138
   3432.000     33.892     0.1863     2.6786    588.618
   3432.500     30.064     0.1662     2.6882    366.417
   3433.000     27.840     0.1407     2.6541    747.485
   3433.500     17.598     0.1485     2.6637    223.098
   3434.000     28.233     0.1921     2.6305    211.847
   3434.500     20.899     0.1233     2.6834    311.863
   3435.000     35.819     0.1902     2.6553    168.448
   3435.500     14.266     0.1300     2.6540    776.768
   3436.000     25.222     0.1534     2.7346    200.834
   3436.500     27.293     0.1769     2.6016    165.346
   3437.000     29.279     0.1450     2.6322    283.554
   3437.500     14.605     0.1718     2.6275    117.874
   3438.000     31.543     0.1603     2.7090    746.867
   3438.500     14.487     0.1246     2.6652    162.303
   3439.000     23.475     0.1335     2.6043    703.560
   3439.500     28.108     0.1394     2.7185    400.569
   3440.000     40.150     0.1147     2.6978    549.785
   3440.500     33.240     0.1475     2.6118    386.179
   3441.000     28.589     0.1679     2.6883    870.118
   3441.500     34.872     0.0961     2.6711    326.514
   3442.000     15.718     0.1256     2.7048    421.297
   3442.500     24.252     0.1278     2.6950    807.437
   3443.000     35.818     0.1528     2.7682    858.128
   3443.500     30.200     0.1022     2.7231    249.291
   3444.000     27.918     0.1001     2.6899    566.370
   3444.500     29.975     0.1687     2.6706    259.678
   3445.000     15.968     0.1845     2.7157    173.454
   3445.500     21.947     0.1715     2.7458    137.559
   3446.000     34.099     0.1306     2.6317     82.946
   3446.500     23.043     0.1674     2.6989    106.693
   3447.000     27.573     0.1044     2.7592    637.020
   3447.500     31.562     0.1111     2.7047    731.891
   3448.000     31.589     0.1343     2.7319    158.794
   3448.500     13.635     0.1085     2.7051    487.099
   3449.000     27.121     0.1658     2.6435    387.071
   3449.500     33.569     0.1950     2.7479    266.568
   3450.000     16.572     0.1347     2.7356    665.864
   3450.500     14.306     0.1555     2.7319    764.455
   3451.000     39.702     0.1858     2.6669    528.306
   3451.500     25.854     0.1766     2.6778    242.361
   3452.000     28.833     0.1189     2.6629    742.503
   3452.500     24.726     0.1689     2.6641    624.311
   3453.000     35.557     0.1416     2.6543    558.641
   3453.500     24.857     0.0820     2.6298    174.998
   3454.000     22.000     0.1108     2.7240    549.769
   3454.500     34.074     0.1295     2.6384    408.587
   3455.000     26.394     0.1807     2.7174    133.822
   3455.500     39.568     0.0803     2.6056    526.113
   3456.000     24.280     0.1797     2.6048    839.108
   3456.500     30.735     0.1831     2.6008    614.812
   3457.000     21.414     0.1819     2.6112    151.907
   3457.500     27.766     0.0775     2.6782    186.227
   3458.000     27.936     0.1603     2.6921    361.025
   3458.500     24.621     0.1050     2.6808    590.910
   3459.000     24.870     0.1175     2.6660    324.533
   3459.500     30.491     0.1570     2.6984    304.350
   3460.000     37.295     0.1833     2.7123    252.118
   3460.500     23.952     0.1552     2.6236    393.835
   3461.000     22.009     0.1452     2.6117    169.991
   3461.500     16.995     0.1160     2.6811    168.907
   3462.000     38.506     0.1115     2.6439    537.630
   3462.500     17.595     0.0946     2.7459    753.354
   3463.000     24.988     0.1974     2.6775    199.832
   3463.500     24.276     0.1807     2.7462    860.509
   3464.000     23.303     0.1593     2.7364    703.838
   3464.500     35.468     0.1252     2.6451    648.356
   3465.000     18.375     0.1516     2.7483    789.489
   3465.500     22.342     0.1144     2.7433    689.312
   3466.000     33.697     0.0948     2.7017     81.778
   3466.500     19.876     0.1286     2.7388    766.042
   3467.000     34.072     0.1413     2.6071    152.092
   3467.500     23.947     0.1770     2.6988    317.851
   3468.000     18.017     0.1953     2.7027    790.398
   3468.500     25.429     0.1726     2.6497    464.197
   3469.000     39.302     0.1152     2.7366    363.922
   3469.500     21.688     0.1956     2.7101    778.442
   3470.000     26.855     0.1265     2.7462    854.333
   3470.500     36.126     0.1647     2.7418    125.690
   3471.000     19.048     0.1878     2.7041    792.119
   3471.500     35.541     0.1134     2.7802    791.941
   3472.000     40.983     0.1192     2.7354    285.089
   3472.500     31.314     0.1652     2.7456    151.193
   3473.000     26.329     0.2000     2.7783    412.967
   3473.500     22.939     0.1700     2.7763    619.570
   3474.000     22.029     0.1198     2.7283    405.842
   3474.500     26.124     0.1510     2.7673    174.588
   3475.000     27.230     0.1431     2.7114    786.577
   3475.500     32.811     0.0952     2.6311    394.901
   3476.000     24.233     0.1165     2.7018    186.010
   3476.500     34.303     0.1438     2.6873    397.739
   3477.000     22.157     0.1422     2.7213    337.306
   3477.500     38.645     0.1483     2.7287    647.692
   3478.000     22.188     0.1319     2.6807    617.530
   3478.500     27.077     0.1222     2.6498    528.146
   3479.000     34.364     0.1482     2.6431    810.345
   3479.500     34.176     0.1444     2.7743    437.752
   3480.000     14.148     0.1152     2.7541    604.392
   3480.500     33.772     0.1969     2.6931    187.720
   3481.000     39.399     0.1034     2.6963    440.094
   3481.500     28.919     0.1007     2.7644    870.289
   3482.000     29.305     0.1979     2.7844    772.635
   3482.500     14.957     0.0861     2.6043    617.041
   3483.000     27.726     0.2000     2.7459    780.113
   3483.500     36.533     0.0992     2.6028    674.077
   3484.000     20.192     0.0907     2.7208    192.527
   3484.500     38.788     0.0951     2.7685    187.748
   3485.000     26.710     0.1397     2.7173    282.292
   3485.500     28.770     0.1206     2.6313    274.826
   3486.000     22.985     0.1587     2.6533    885.001
   3486.500     14.827     0.1366     2.7048     83.878
   3487.000     32.650     0.1434     2.7711    630.698
   3487.500     17.388     0.1522     2.7087    775.961
   3488.000     29.574     0.1752     2.6091    280.929
   3488.500     16.030     0.0950     2.7300    534.482
   3489.000     36.690     0.1331     2.6241    511.774
   3489.500     33.888     0.1317     2.6962    360.977
   3490.000     25.466     0.0877     2.6826    849.085
   3490.500     33.903     0.1043     2.7221    637.146
   3491.000     23.381     0.1503     2.6600    822.606
   3491.500     30.329     0.1452     2.7019    803.532
   3492.000     15.913     0.1855     2.6806    183.352
   3492.500     16.349     0.1139     2.6830    797.973
   3493.000     20.149     0.1428     2.7444    691.926
   3493.500     40.150     0.1004     2.7335    181.994
   3494.000     17.469     0.1614     2.6944    609.163
   3494.500     36.648     0.1579     2.6385    631.725
   3495.000     32.893     0.1593     2.6286    145.334
   3495.500     21.279     0.1681     2.6294    830.705
   3496.000     26.749     0.1743     2.7507    386.765
   3496.500     29.103     0.0876     2.7135    561.675
   3497.000     39.537     0.1400     2.6776    300.564
   3497.500     27.766     0.1735     2.7206    540.862
   3498.000     38.213     0.1365     2.7506    465.942
   3498.500     19.825     0.1581     2.7346    299.076
   3499.000     22.506     0.1986     2.7023    683.014
   3499.500     35.689     0.1209     2.6807    223.581
   3500.000     17.305     0.1017     2.7309    115.413
   3500.500     26.294     0.1744     2.7310    441.423
