~VERSION INFORMATION
 VERS.                    2.0 : CWLS Log ASCII Standard - VERSION 2.0
 WRAP.                     NO : ONE LINE PER DEPTH STEP

~WELL INFORMATION
 WELL.              Well-Beta : WELL NAME
 FLD .                FIELD-A : FIELD NAME
 LOC .         SEC 12 T5N R6E : LOCATION
 CTRY.                    USA : COUNTRY
 SRVC.           SYNTH LOGGER : SERVICE COMPANY
 DATE.              2024-01-15 : LOG DATE
 UWI .       30-045-20130-00-00 : UNIQUE WELL ID

~CURVE INFORMATION
 DEPT.M                      : DEPTH
 GR  .GAPI                   : GAMMA RAY
 NPHI.V/V                    : NEUTRON POROSITY
 RHOB.G/CC                   : BULK DENSITY
 RT  .OHMM                   : TRUE RESISTIVITY

~PARAMETER INFORMATION
 STRT.M            2500.00 : START DEPTH
 STOP.M            4000.50 : STOP DEPTH
 STEP.M                  0.5 : STEP
 NULL.              -999.25 : NULL VALUE

~ASCII LOG DATA
# ...
   3572.500     41.752     0.0889     2.7431    293.082
   3573.000     16.664     0.0851     2.7827    367.968
   3573.500     31.409     0.0830     2.7166    266.936
   3574.000     16.295     0.0921     2.6260    658.078
   3574.500     19.012     0.1817     2.6275    319.299
   3575.000     26.380     0.1105     2.6504    171.821
   3575.500     15.142     0.1555     2.6011    837.546
   3576.000     23.897     0.1395     2.6119    861.916
   3576.500     40.150     0.1607     2.7741    896.987
   3577.000     22.311     0.1921     2.6646    460.734
   3577.500     20.157     0.0988     2.7576    285.151
   3578.000     25.488     0.0905     2.7636    578.811
   3578.500     37.476     0.1341     2.6051    836.507
   3579.000     33.777     0.0750     2.7207    310.486
   3579.500     25.546     0.1596     2.6989    128.094
   3580.000     16.958     0.1005     2.7821    621.265
   3580.500     27.236     0.1032     2.7515    661.073
   3581.000     17.361     0.1113     2.6872    568.285
   3581.500     37.102     0.1469     2.7875    480.980
   3582.000     37.421     0.1439     2.6106    790.618
   3582.500     19.551     0.1918     2.7434    385.410
   3583.000     39.187     0.0997     2.6176    709.926
   3583.500     22.591     0.1511     2.6691    579.160
   3584.000     32.716     0.1497     2.6403    523.307
   3584.500     21.936     0.1287     2.7663    792.802
   3585.000     24.471     0.0905     2.7321    862.835
   3585.500     22.485     0.1113     2.6277    885.152
   3586.000     34.326     0.0799     2.7604    770.828
   3586.500     14.429     0.0878     2.6825    771.166
   3587.000     32.837     0.1594     2.6464    138.593
   3587.500     20.637     0.1614     2.7585    346.976
   3588.000     31.519     0.0908     2.6983    219.935
   3588.500     33.578     0.1750     2.7376    646.967
   3589.000     31.460     0.1955     2.6801    641.351
   3589.500     25.744     0.0861     2.7251    310.694
   3590.000     17.286     0.1035     2.6135    616.873
   3590.500     23.557     0.1241     2.7079    716.619
   3591.000     22.203     0.1521     2.7052    423.916
   3591.500     38.584     0.0909     2.7027    864.706
   3592.000     38.899     0.1300     2.6661    613.005
   3592.500     29.523     0.1198     2.6768    162.292
   3593.000     34.241     0.1295     2.7354    574.786
   3593.500     19.926     0.1728     2.6040    524.642
   3594.000     19.727     0.1308     2.7658    772.283
   3594.500     23.060     0.0963     2.6160    606.967
   3595.000     12.774     0.0798     2.6415    562.797
   3595.500     34.530     0.1406     2.7573    317.426
   3596.000     23.099     0.1383     2.7509    444.702
   3596.500     31.289     0.0963     2.6706    265.968
   3597.000     20.121     0.1315     2.6932    563.589
   3597.500     40.187     0.1101     2.7387    132.579
   3598.000     23.071     0.1458     2.7717    539.097
   3598.500     25.799     0.1839     2.6701    592.943
   3599.000     30.595     0.0844     2.7026    389.398
   3599.500     25.013     0.1172     2.7721    141.988
   3600.000     34.827     0.1993     2.7739     94.145
   3600.500     37.208     0.1347     2.6094    130.165
   3601.000     18.006     0.1933     2.6748    712.791
   3601.500     38.387     0.1804     2.6748    799.129
   3602.000     40.055     0.1224     2.7161    849.676
   3602.500     25.933     0.1477     2.7259    367.914
   3603.000     18.785     0.1834     2.7376    285.415
   3603.500     31.630     0.0868     2.6861    417.549
   3604.000     22.593     0.1714     2.7488    292.015
   3604.500     30.044     0.1647     2.6797    305.371
   3605.000     26.673     0.0877     2.6904    110.683
   3605.500     35.369     0.0886     2.7393    689.677
   3606.000     17.329     0.1038     2.6283    484.889
   3606.500     22.486     0.1535     2.7292    818.642
   3607.000     25.888     0.0838     2.7548    559.074
   3607.500     26.189     0.1246     2.7044    827.043
   3608.000     21.080     0.1565     2.6832    229.884
   3608.500     42.597     0.0967     2.6693    607.232
   3609.000     33.567     0.1421     2.6953    593.450
   3609.500     39.811     0.1234     2.6726    126.380
   3610.000     27.676     0.1465     2.7473    548.733
   3610.500     21.085     0.0930     2.6865    562.747
   3611.000     28.937     0.2024     2.6471    101.952
   3611.500     34.576     0.1890     2.6593    127.406
   3612.000     32.382     0.1439     2.7649    567.449
   3612.500     34.683     0.1667     2.6712    519.944
   3613.000     16.853     0.1052     2.6863    838.344
   3613.500     36.841     0.1939     2.7880    426.645
   3614.000     16.039     0.1530     2.6688     95.143
   3614.500     23.411     0.0799     2.7472    398.711
   3615.000     23.183     0.1371     2.7565    318.667
   3615.500     31.217     0.1418     2.7463    106.728
   3616.000     23.535     0.1845     2.6241    368.055
   3616.500     28.705     0.1506     2.6340     95.433
   3617.000     32.732     0.1906     2.5887    365.669
   3617.500     36.338     0.1760     2.6493    848.930
   3618.000     16.852     0.1427     2.6248    328.172
   3618.500     32.351     0.1194     2.6248    232.970
   3619.000     19.843     0.1748     2.7699    535.651
   3619.500     30.252     0.1234     2.6630    559.986
   3620.000     22.625     0.1687     2.6850    233.194
   3620.500     25.983     0.0891     2.6127    418.633
   3621.000     18.283     0.1223     2.6799    541.714
   3621.500     24.655     0.1913     2.6599    129.929
   3622.000     35.345     0.1677     2.7503    629.981
   3622.500     28.247     0.1603     2.7618    801.517
   3623.000     39.738     0.1247     2.6221    273.203
   3623.500     15.128     0.1964     2.7028    198.643
   3624.000     26.621     0.0859     2.6573    797.621
   3624.500     20.951     0.1739     2.7834    517.080
   3625.000     17.908     0.1782     2.7781    400.961
   3625.500     30.233     0.0867     2.6679    481.136
   3626.000     40.236     0.0938     2.7127    866.523
   3626.500     34.255     0.1767     2.7101    279.104
   3627.000     34.530     0.1591     2.6408    381.538
   3627.500     40.785     0.0952     2.7708    403.474
   3628.000     30.034     0.1561     2.6126    857.039
   3628.500     37.713     0.1402     2.6906    647.167
   3629.000     32.005     0.1887     2.7025    119.966
   3629.500     18.278     0.0835     2.7308    367.322
   3630.000     28.052     0.0987     2.6185    240.629
   3630.500     25.219     0.1827     2.7415    403.522
   3631.000     26.804     0.1559     2.6361    573.390
   3631.500     41.225     0.1660     2.6737    414.956
   3632.000     35.620     0.1213     2.6915    131.396
   3632.500     18.296     0.1059     2.6274    454.485
   3633.000     15.985     0.1934     2.7769    413.035
   3633.500     36.583     0.1194     2.6112     82.207
   3634.000     33.099     0.1594     2.6016    525.223
   3634.500     35.837     0.1721     2.6470     89.181
   3635.000     24.231     0.0814     2.7809    540.684
   3635.500     24.226     0.1695     2.7060    900.669
   3636.000     13.324     0.1521     2.6083    710.003
   3636.500     30.123     0.1004     2.7753    441.626
   3637.000     18.046     0.1791     2.6535    232.752
   3637.500     28.639     0.1621     2.6240    271.079
   3638.000     29.201     0.0857     2.6196    426.318
   3638.500     25.487     0.2002     2.6544    260.040
   3639.000     22.908     0.1945     2.5911    834.623
   3639.500     29.236     0.1847     2.7444    363.606
   3640.000     30.427     0.1175     2.6653    806.034
   3640.500     32.751     0.1869     2.7144    620.155
   3641.000     40.542     0.1114     2.6126    811.938
   3641.500     28.459     0.1558     2.6186    861.198
   3642.000     26.206     0.1758     2.6266     88.421
   3642.500     19.300     0.1864     2.7894    890.811
   3643.000     23.708     0.1080     2.7305    685.064
   3643.500     25.406     0.2013     2.6549    693.483
