~VERSION INFORMATION
 VERS.                    2.0 : CWLS Log ASCII Standard - VERSION 2.0
 WRAP.                     NO : ONE LINE PER DEPTH STEP

~WELL INFORMATION
 WELL.              Well-Alpha : WELL NAME
 FLD .                FIELD-A : FIELD NAME
 LOC .         SEC 12 T5N R6E : LOCATION
 CTRY.                    USA : COUNTRY
 SRVC.           SYNTH LOGGER : SERVICE COMPANY
 DATE.              2024-01-15 : LOG DATE
 UWI .       30-045-20130-00-00 : UNIQUE WELL ID

~CURVE INFORMATION
 DEPT.M                      : DEPTH
 GR  .GAPI                   : GAMMA RAY
 NPHI.V/V                    : NEUTRON POROSITY
 RHOB.G/CC                   : BULK DENSITY
 RT  .OHMM                   : TRUE RESISTIVITY

~PARAMETER INFORMATION
 STRT.M            1500.00 : START DEPTH
 STOP.M            3000.50 : STOP DEPTH
 STEP.M                  0.5 : STEP
 NULL.              -999.25 : NULL VALUE

~ASCII LOG DATA
# ...
   1786.000     95.856     0.3659     2.5853     11.944
   1786.500    104.926     0.3715     2.5256      4.684
   1787.000    114.038     0.3044     2.4805     10.753
   1787.500    119.220     0.3633     2.6008      5.773
   1788.000     83.065     0.3212     2.6051      8.904
   1788.500    116.246     0.3764     2.5938      6.212
   1789.000    100.642     0.3193     2.4941      5.920
   1789.500     91.689     0.3548     2.5898      6.206
   1790.000     98.664     0.3262     2.4581      5.211
   1790.500    118.625     0.2952     2.5276     10.212
   1791.000     99.465     0.2997     2.5194      8.632
   1791.500     94.631     0.3196     2.6246      9.398
   1792.000    105.404     0.3626     2.5270      3.589
   1792.500     87.522     0.3385     2.4637     11.479
   1793.000     80.568     0.3506     2.5367      8.372
   1793.500     82.176     0.3021     2.5517      3.925
   1794.000     88.033     0.3293     2.6460      9.249
   1794.500     87.691     0.2824     2.6504      3.586
   1795.000     85.340     0.3579     2.4962      1.973
   1795.500    104.727     0.3932     2.4996      6.686
   1796.000     86.127     0.3189     2.4797      7.867
   1796.500     96.013     0.2800     2.6026      3.640
   1797.000    119.680     0.3015     2.4398      5.531
   1797.500     97.748     0.3414     2.4735     11.327
   1798.000    108.979     0.3432     2.5568      4.895
   1798.500     86.949     0.3613     2.4981      2.602
   1799.000     87.267     0.3066     2.4734     11.470
   1799.500     84.643     0.3678     2.5272      5.145
   1800.000     86.737     0.3448     2.5042      8.608
   1800.500     91.736     0.3200     2.5557      3.808
   1801.000     87.577     0.3369     2.6541      6.817
   1801.500     80.297     0.2993     2.4669      5.958
   1802.000     85.402     0.3270     2.5339     12.529
   1802.500     97.306     0.3775     2.6303      6.348
   1803.000     85.411     0.3205     2.6398      7.409
   1803.500     93.537     0.3664     2.5305     12.113
   1804.000     99.086     0.3456     2.5904     12.067
   1804.500    109.676     0.2964     2.4497      2.351
   1805.000     79.445     0.3431     2.5991     10.898
   1805.500    110.397     0.3305     2.6455      5.422
   1806.000    105.587     0.3137     2.5592      7.024
   1806.500     80.619     0.2847     2.5488      5.279
   1807.000    113.625     0.3212     2.4937      5.978
   1807.500    113.506     0.2922     2.5850      2.809
   1808.000     84.283     0.2795     2.5729      6.578
   1808.500     90.472     0.3226     2.5936      7.975
   1809.000    112.216     0.3150     2.4480      4.985
   1809.500    111.762     0.3662     2.5538      6.950
   1810.000     85.936     0.3144     2.5731     11.403
   1810.500     87.750     0.3586     2.4981      8.328
   1811.000     92.706     0.3373     2.4968      6.140
   1811.500     97.264     0.3584     2.4924     10.355
   1812.000    102.889     0.3031     2.5803      6.888
   1812.500     93.772     0.3701     2.5694      2.919
   1813.000     97.732     0.3413     2.6013      6.459
   1813.500    110.476     0.3594     2.5117      2.666
   1814.000     79.685     0.3190     2.6317      9.662
   1814.500     90.737     0.3009     2.5896     11.347
   1815.000    109.504     0.3511     2.5235      5.467
   1815.500    114.873     0.2847     2.4701      5.896
   1816.000     98.858     0.3339     2.4865      5.833
   1816.500    101.455     0.3019     2.6353      4.886
   1817.000     83.881     0.3467     2.5094      9.565
   1817.500     98.337     0.3762     2.5130      8.341
   1818.000    104.444     0.3322     2.4852      1.963
   1818.500     89.836     0.3638     2.6250      9.897
   1819.000     89.491     0.3234     2.5146      2.927
   1819.500     93.310     0.3308     2.5096     10.953
   1820.000     79.098     0.3622     2.5225      4.835
   1820.500     89.958     0.3726     2.5326      7.086
   1821.000     90.323     0.3574     2.5445      1.820
   1821.500     88.633     0.3192     2.5295      5.529
   1822.000     85.767     0.3369     2.6137      9.921
   1822.500    113.885     0.3070     2.6108      6.317
   1823.000    102.719     0.3191     2.6216     10.653
   1823.500    105.368     0.3318     2.4800      7.498
   1824.000    114.459     0.3600     2.5953     11.265
   1824.500     99.970     0.3751     2.4860     11.260
   1825.000     85.058     0.3159     2.4516      6.498
   1825.500    104.085     0.2823     2.6457      7.271
   1826.000    103.800     0.3604     2.6209     10.415
   1826.500    107.426     0.2981     2.5773      3.810
   1827.000     96.825     0.3523     2.6273      9.838
   1827.500     83.619     0.2861     2.6412      8.366
   1828.000     90.344     0.3198     2.5620      9.112
   1828.500     94.334     0.3663     2.5872      2.155
   1829.000    105.568     0.2874     2.6179      9.836
   1829.500    103.655     0.3247     2.4919      4.185
   1830.000     95.358     0.3082     2.4836      9.168
   1830.500    119.192     0.3776     2.6155      7.124
   1831.000    105.038     0.3673     2.5267      4.957
   1831.500     88.390     0.3092     2.4751     11.647
   1832.000     86.701     0.2891     2.5054      9.936
   1832.500     84.983     0.3413     2.5133     11.217
   1833.000     92.233     0.3113     2.6526      5.147
   1833.500     83.475     0.3421     2.5859      7.988
   1834.000     86.702     0.2887     2.5521      8.435
   1834.500     90.742     0.2912     2.6499      8.966
   1835.000     87.493     0.3512     2.6314      2.418
   1835.500    117.594     0.2986     2.5563      4.254
   1836.000     80.711     0.3603     2.6279     10.482
   1836.500     98.764     0.2886     2.5272      6.615
   1837.000     93.612     0.2978     2.4887     11.600
   1837.500    121.936     0.3779     2.5036      4.274
   1838.000     85.077     0.3171     2.5833     11.940
   1838.500     93.745     0.3478     2.5531      9.927
   1839.000    117.893     0.2984     2.5716     10.241
   1839.500    116.984     0.3395     2.5942      5.587
   1840.000    112.127     0.3567     2.4576     11.034
   1840.500     89.642     0.3122     2.4681      7.239
   1841.000     85.273     0.3783     2.5600      8.082
   1841.500    104.696     0.3425     2.4911      2.255
   1842.000    119.542     0.3102     2.5583      7.854
   1842.500    105.618     0.3347     2.5718     10.847
   1843.000    100.894     0.3370     2.5539      2.964
   1843.500     94.009     0.2935     2.5209      9.171
   1844.000    109.805     0.3206     2.5772      1.584
   1844.500     88.549     0.3111     2.5998     11.263
   1845.000     95.768     0.3218     2.6488     12.555
   1845.500     96.727     0.3466     2.6027      5.767
   1846.000     99.649     0.3340     2.5726      1.969
   1846.500     91.299     0.3661     2.4835      8.389
   1847.000     82.374     0.3080     2.5759      1.662
   1847.500    106.719     0.3179     2.6441      6.243
   1848.000     91.831     0.3602     2.4919      5.430
   1848.500    102.094     0.3337     2.5064      6.207
   1849.000     84.966     0.3360     2.4787      1.463
   1849.500     96.479     0.2909     2.6089      2.919
   1850.000    100.231     0.3237     2.5273      2.152
   1850.500     81.545     0.3073     2.4468      7.779
   1851.000     91.342     0.3822     2.6140      7.761
   1851.500     85.286     0.3206     2.5659      3.828
   1852.000     83.481     0.3725     2.5096      8.203
   1852.500    119.171     0.3462     2.5316     10.381
   1853.000     94.220     0.3205     2.4963      3.195
   1853.500    110.781     0.3363     2.5513      9.523
   1854.000     92.192     0.3592     2.5131      7.904
   1854.500    107.504     0.3674     2.5727      2.065
   1855.000    113.500     0.2887     2.6098      5.516
   1855.500    108.654     0.3025     2.5868      7.375
   1856.000     97.923     0.3088     2.5155      8.581
   1856.500     95.616     0.2848     2.5680      5.408
   1857.000     93.462     0.3405     2.6175     12.666
