~VERSION INFORMATION
 VERS.                    2.0 : CWLS Log ASCII Standard - VERSION 2.0
 WRAP.                     NO : ONE LINE PER DEPTH STEP

~WELL INFORMATION
 WELL.              Well-Beta : WELL NAME
 FLD .                FIELD-A : FIELD NAME
 LOC .         SEC 12 T5N R6E : LOCATION
 CTRY.                    USA : COUNTRY
 SRVC.           SYNTH LOGGER : SERVICE COMPANY
 DATE.              2024-01-15 : LOG DATE
 UWI .       30-045-20130-00-00 : UNIQUE WELL ID

~CURVE INFORMATION
 DEPT.M                      : DEPTH
 GR  .GAPI                   : GAMMA RAY
 NPHI.V/V                    : NEUTRON POROSITY
 RHOB.G/CC                   : BULK DENSITY
 RT  .OHMM                   : TRUE RESISTIVITY

~PARAMETER INFORMATION
 STRT.M            2500.00 : START DEPTH
 STOP.M            4000.50 : STOP DEPTH
 STEP.M                  0.5 : STEP
 NULL.              -999.25 : NULL VALUE

~ASCII LOG DATA
# ...
   2714.500     30.005     0.0874     2.6213    294.105
   2715.000     31.423     0.0930     2.7627    817.613
   2715.500     14.781     0.1597     2.7621    855.491
   2716.000     33.700     0.1823     2.7391    701.148
   2716.500     35.419     0.1057     2.6488    313.082
   2717.000     40.909     0.1594     2.6133    705.127
   2717.500     22.385     0.1831     2.6602    144.726
   2718.000     30.860     0.1248     2.7155    873.997
   2718.500     33.111     0.1019     2.6479    426.419
   2719.000     27.372     0.1110     2.7512    345.926
   2719.500     18.440     0.1008     2.6778    691.158
   2720.000     21.692     0.1739     2.6344    237.291
   2720.500     39.346     0.0828     2.6052    480.806
   2721.000     35.716     0.0938     2.6091    772.884
   2721.500     35.675     0.1422     2.6617    739.967
   2722.000     35.848     0.1032     2.6214    747.773
   2722.500     38.499     0.1328     2.7109    529.731
   2723.000     21.760     0.1864     2.7223    131.521
   2723.500     15.986     0.1591     2.6787    765.493
   2724.000     19.524     0.1752     2.7175    242.827
   2724.500     28.233     0.1984     2.7008    853.086
   2725.000     39.567     0.0965     2.7285    719.170
   2725.500     26.796     0.1680     2.6535    176.082
   2726.000     34.024     0.1315     2.7741    355.329
   2726.500     35.796     0.1658     2.6132    683.711
   2727.000     22.846     0.1030     2.6794    754.036
   2727.500     25.714     0.1866     2.7426    278.682
   2728.000     17.454     0.1082     2.5986    254.615
   2728.500     33.833     0.1123     2.6633    624.964
   2729.000     38.553     0.1727     2.6088    552.609
   2729.500     22.879     0.1177     2.6792    467.356
   2730.000     32.140     0.1756     2.7163    530.133
   2730.500     28.709     0.1387     2.7687    419.596
   2731.000     18.585     0.1533     2.6859    421.054
   2731.500     33.125     0.0961     2.6903    677.753
   2732.000     23.132     0.0957     2.6150    505.730
   2732.500     23.035     0.0904     2.7824    579.856
   2733.000     24.815     0.1705     2.7473    194.933
   2733.500     26.779     0.1420     2.7190    628.674
   2734.000     37.037     0.1031     2.6727    440.763
   2734.500     27.397     0.1641     2.6239    160.271
   2735.000     26.403     0.0845     2.6169    889.834
   2735.500     19.595     0.1861     2.5965    143.489
   2736.000     37.018     0.1269     2.6706    123.013
   2736.500     22.587     0.1190     2.6263    341.722
   2737.000     26.160     0.0954     2.6090    217.030
   2737.500     31.686     0.1341     2.6577    176.703
   2738.000     24.126     0.1672     2.7728    329.292
   2738.500     18.701     0.1120     2.6427    314.567
   2739.000     29.747     0.1721     2.6998    795.645
   2739.500     29.719     0.1982     2.6705    324.997
   2740.000     17.510     0.1244     2.6677    242.428
   2740.500     36.754     0.1194     2.7715    781.902
   2741.000     19.697     0.1129     2.6310    543.673
   2741.500     36.157     0.1208     2.6548    733.658
   2742.000     38.753     0.1051     2.6951    195.933
   2742.500     37.986     0.1495     2.6394    752.133
   2743.000     33.305     0.1673     2.6150     93.234
   2743.500     32.928     0.1198     2.6571    620.083
   2744.000     35.422     0.0970     2.6204    275.654
   2744.500     25.058     0.1954     2.7461    702.411
   2745.000     20.879     0.2008     2.6565    857.436
   2745.500     26.676     0.1216     2.6009    526.063
   2746.000     18.639     0.1013     2.7521    366.394
   2746.500     35.340     0.1288     2.6110    306.845
   2747.000     16.666     0.1668     2.7654    434.851
   2747.500     41.138     0.1223     2.7659    586.454
   2748.000     25.662     0.1909     2.6508    665.659
   2748.500     42.961     0.1921     2.5929    605.114
   2749.000     28.452     0.1289     2.7013    457.261
   2749.500     38.661     0.1158     2.6832    703.665
   2750.000     31.727     0.1939     2.6192    483.214
   2750.500     32.900     0.1432     2.7028    825.929
   2751.000     39.623     0.1046     2.6474    758.416
   2751.500     23.531     0.1668     2.6042    391.269
   2752.000     17.282     0.0981     2.6474    177.102
   2752.500     37.724     0.1973     2.5998    779.494
   2753.000     27.841     0.1241     2.7879    535.913
   2753.500     14.971     0.1203     2.6989    636.882
   2754.000     24.113     0.1432     2.7188    453.429
   2754.500     24.581     0.1036     2.7357    293.286
   2755.000     15.163     0.1790     2.7280    483.212
   2755.500     36.804     0.1284     2.6372    646.891
   2756.000     19.601     0.1202     2.6885    881.409
   2756.500     27.086     0.1576     2.6748    675.637
   2757.000     16.306     0.1778     2.6127    109.699
   2757.500     31.355     0.1435     2.7593    223.960
   2758.000     36.173     0.1975     2.7448    317.721
   2758.500     29.778     0.0997     2.7048    891.295
   2759.000     32.358     0.1579     2.6987    430.020
   2759.500     33.111     0.1942     2.6057    613.690
   2760.000     32.317     0.1784     2.7124    128.835
   2760.500     22.605     0.1769     2.7547    890.471
   2761.000     16.647     0.1026     2.6224    685.839
   2761.500     39.362     0.0901     2.6852    212.364
   2762.000     28.525     0.1403     2.6233    811.388
   2762.500     34.615     0.0853     2.7403    699.321
   2763.000     25.210     0.1132     2.6119    305.517
   2763.500     26.360     0.1692     2.7906    184.451
   2764.000     20.841     0.1529     2.7102    525.548
   2764.500     37.739     0.1027     2.6473    183.426
   2765.000     36.240     0.1927     2.7414    487.644
   2765.500     17.296     0.1344     2.7284    325.161
   2766.000     28.046     0.1956     2.7141    747.172
   2766.500     29.674     0.1408     2.6133    845.761
   2767.000     40.421     0.1425     2.6367    738.622
   2767.500     25.296     0.1744     2.6679    718.616
   2768.000     27.718     0.1287     2.6743    212.212
   2768.500     25.064     0.1075     2.6914    863.543
   2769.000     20.117     0.1304     2.7141    789.166
   2769.500     24.344     0.1283     2.7608    244.653
   2770.000     15.778     0.1422     2.7354    262.897
   2770.500     37.669     0.1861     2.6279    277.750
   2771.000     38.472     0.0905     2.6799    675.917
   2771.500     25.930     0.1202     2.7439    218.034
   2772.000     27.698     0.1332     2.7751    159.767
   2772.500     28.801     0.1036     2.7521    843.307
   2773.000     35.735     0.1481     2.7202    550.037
   2773.500     37.576     0.1951     2.6146    397.631
   2774.000     18.243     0.1886     2.7660    106.895
   2774.500     36.891     0.1151     2.7563    253.643
   2775.000     19.765     0.0964     2.6929    567.236
   2775.500     38.955     0.1319     2.6881    392.835
   2776.000     18.370     0.2020     2.6370    548.831
   2776.500     27.980     0.1008     2.7672    530.640
   2777.000     31.662     0.1574     2.7136    669.555
   2777.500     32.906     0.0962     2.7164    736.496
   2778.000     27.134     0.1432     2.6934     83.395
   2778.500     40.448     0.0834     2.6532    355.153
   2779.000     31.669     0.0868     2.7696    321.313
   2779.500     35.124     0.1248     2.6107    209.835
   2780.000     20.236     0.1597     2.7502    536.966
   2780.500     16.483     0.1142     2.7142    583.243
   2781.000     32.075     0.1226     2.6403    144.371
   2781.500     27.973     0.1049     2.6386    700.049
   2782.000     19.940     0.1419     2.7556    108.548
   2782.500     19.982     0.1079     2.7020    707.573
   2783.000     39.312     0.1817     2.6371    675.751
   2783.500     15.656     0.1898     2.6506    161.178
   2784.000     24.589     0.1691     2.6511    810.991
   2784.500     16.700     0.0984     2.6459    897.506
   2785.000     21.424     0.1219     2.6874    138.833
   2785.500     37.231     0.1942     2.6715    650.213
