~VERSION INFORMATION
 VERS.                    2.0 : CWLS Log ASCII Standard - VERSION 2.0
 WRAP.                     NO : ONE LINE PER DEPTH STEP

~WELL INFORMATION
 WELL.              Well-Beta : WELL NAME
 FLD .                FIELD-A : FIELD NAME
 LOC .         SEC 12 T5N R6E : LOCATION
 CTRY.                    USA : COUNTRY
 SRVC.           SYNTH LOGGER : SERVICE COMPANY
 DATE.              2024-01-15 : LOG DATE
 UWI .       30-045-20130-00-00 : UNIQUE WELL ID

~CURVE INFORMATION
 DEPT.M                      : DEPTH
 GR  .GAPI                   : GAMMA RAY
 NPHI.V/V                    : NEUTRON POROSITY
 RHOB.G/CC                   : BULK DENSITY
 RT  .OHMM                   : TRUE RESISTIVITY

~PARAMETER INFORMATION
 STRT.M            2500.00 : START DEPTH
 STOP.M            4000.50 : STOP DEPTH
 STEP.M                  0.5 : STEP
 NULL.              -999.25 : NULL VALUE

~ASCII LOG DATA
# ...
   3072.000     82.115     0.3142     2.4412      7.094
   3072.500    101.192     0.3680     2.4871      3.964
   3073.000    101.770     0.2881     2.4234      2.139
   3073.500    100.025     0.3044     2.4523      1.037
   3074.000    101.815     0.3213     2.4567      6.889
   3074.500    105.437     0.3695     2.4166      1.918
   3075.000     97.193     0.2889     2.4288      2.330
   3075.500     75.382     0.3580     2.4087      6.823
   3076.000     89.541     0.3642     2.3922      9.093
   3076.500    101.501     0.3700     2.3910      4.953
   3077.000     81.013     0.2812     2.4637      4.595
   3077.500     81.461     0.2997     2.4310      5.553
   3078.000    105.290     0.2821     2.4035      1.905
   3078.500     91.065     0.3506     2.3959      0.500
   3079.000    110.853     0.4017     2.5228      4.341
   3079.500    108.242     0.3876     2.4554      8.648
   3080.000     72.580     0.3824     2.4155      2.353
   3080.500     84.673     0.2835     2.5052      1.279
   3081.000     85.518     0.2845     2.4130      2.058
   3081.500    100.067     0.3173     2.3933      5.742
   3082.000     80.974     0.3359     2.5152      6.199
   3082.500     86.569     0.3751     2.5575      3.465
   3083.000     92.443     0.2898     2.5293      3.989
   3083.500    103.984     0.3538     2.4491      4.619
   3084.000    106.834     0.2895     2.4826      1.824
   3084.500     88.204     0.2848     2.4606      1.730
   3085.000     82.158     0.3519     2.5026      4.849
   3085.500     87.997     0.3214     2.4350      3.574
   3086.000    104.674     0.2885     2.5266      3.337
   3086.500     90.078     0.3108     2.4249      6.637
   3087.000     87.333     0.3684     2.4125      2.724
   3087.500    108.465     0.3642     2.3937      4.247
   3088.000     91.761     0.3523     2.5165      4.490
   3088.500    110.554     0.3117     2.5084      2.673
   3089.000    106.306     0.3805     2.3670      4.925
   3089.500    103.354     0.3434     2.3807      6.877
   3090.000     84.464     0.3030     2.4293      7.789
   3090.500    109.746     0.3900     2.4041      4.107
   3091.000     98.009     0.4019     2.3910      3.639
   3091.500    106.690     0.3043     2.4853      1.548
   3092.000    102.828     0.2981     2.3910      6.046
   3092.500     83.187     0.3639     2.4650      2.304
   3093.000     76.402     0.3555     2.5239      5.432
   3093.500     90.517     0.2808     2.4258      7.302
   3094.000     94.042     0.3779     2.4942      2.816
   3094.500    104.107     0.2920     2.5317      4.291
   3095.000     85.986     0.3970     2.4874      3.959
   3095.500     80.026     0.3878     2.4077      7.121
   3096.000     79.372     0.3097     2.3688      0.908
   3096.500     99.159     0.3525     2.4925      5.519
   3097.000     81.724     0.4017     2.4024      4.054
   3097.500     79.471     0.3282     2.4137      4.591
   3098.000     85.534     0.3750     2.3939      8.265
   3098.500     97.234     0.3671     2.4551      3.753
   3099.000    105.191     0.3098     2.4082      4.738
   3099.500     99.543     0.3902     2.4486      1.061
   3100.000     98.104     0.3615     2.5045      5.410
   3100.500     76.820     0.3480     2.5004      4.422
   3101.000    100.360     0.2857     2.3762      4.537
   3101.500     87.167     0.3742     2.4397      2.675
   3102.000    104.426     0.2916     2.4567      4.930
   3102.500     89.148     0.3544     2.4948      2.184
   3103.000     78.860     0.3602     2.4057      3.915
   3103.500    100.919     0.3852     2.4270      2.644
   3104.000    107.208     0.3709     2.5366      7.809
   3104.500     89.985     0.3453     2.5447      8.071
   3105.000     78.541     0.3563     2.4174      8.204
   3105.500    104.949     0.2874     2.4098      2.888
   3106.000     78.632     0.3788     2.5375      0.752
   3106.500     73.766     0.2901     2.5298      2.852
   3107.000     86.158     0.3514     2.4487      6.186
   3107.500     84.150     0.3537     2.4216      1.760
   3108.000     77.915     0.3186     2.4687      9.179
   3108.500     89.856     0.3512     2.5107      8.615
   3109.000     93.837     0.3528     2.5223      2.383
   3109.500     90.847     0.2955     2.3785      2.301
   3110.000     93.103     0.3747     2.5214      2.779
   3110.500     97.130     0.3771     2.5337      3.907
   3111.000     96.214     0.4004     2.5263      2.756
   3111.500     77.376     0.3203     2.3784      2.566
   3112.000     84.568     0.2876     2.5027      6.312
   3112.500     89.698     0.3223     2.4490      2.798
   3113.000     75.023     0.3692     2.4237      5.410
   3113.500    102.166     0.3347     2.3892      5.729
   3114.000     97.948     0.3217     2.4604      2.097
   3114.500     92.037     0.3034     2.3883      5.832
   3115.000     89.099     0.3160     2.4448      6.321
   3115.500    104.228     0.3878     2.4678      3.490
   3116.000     84.015     0.3568     2.5221      8.036
   3116.500     89.659     0.3244     2.4726      4.867
   3117.000     82.357     0.3918     2.3945      6.565
   3117.500     88.699     0.3875     2.4974      7.707
   3118.000     88.586     0.3000     2.4379      3.575
   3118.500    108.027     0.2805     2.3867      2.386
   3119.000     87.293     0.3808     2.3820      2.997
   3119.500    101.012     0.3267     2.5085      2.781
   3120.000     87.434     0.3888     2.4448      2.179
   3120.500     84.784     0.3027     2.5227      5.501
   3121.000     96.239     0.3298     2.5297      7.173
   3121.500    106.320     0.3933     2.4113      3.512
   3122.000     99.583     0.2919     2.5077      6.328
   3122.500     79.687     0.3873     2.4551      0.500
   3123.000    102.502     0.3851     2.4808      2.279
   3123.500     80.638     0.3835     2.5113      9.388
   3124.000     80.334     0.3248     2.4679      3.491
   3124.500     86.024     0.3753     2.4695      1.229
   3125.000     83.778     0.3385     2.3979      7.478
   3125.500    102.415     0.3699     2.3889      2.137
   3126.000    100.126     0.3769     2.3799      0.636
   3126.500    101.779     0.3296     2.4170      4.843
   3127.000     97.049     0.3230     2.5568      4.244
   3127.500    102.929     0.3007     2.4047      4.146
   3128.000    102.812     0.3852     2.4113      7.499
   3128.500     96.925     0.3082     2.5244      4.010
   3129.000     89.104     0.2863     2.4941      6.928
   3129.500    104.863     0.3848     2.4492      2.911
   3130.000     93.476     0.3632     2.4061      4.422
   3130.500     90.445     0.3572     2.4887      5.178
   3131.000     84.862     0.3653     2.4631      6.018
   3131.500     74.169     0.3673     2.5227      3.923
   3132.000     97.216     0.3689     2.5217      2.011
   3132.500     93.809     0.2909     2.4768      4.941
   3133.000     88.721     0.3168     2.4902      3.287
   3133.500     92.061     0.3367     2.5169      7.636
   3134.000    102.354     0.3687     2.4710      7.316
   3134.500     90.959     0.2919     2.4428      3.961
   3135.000     98.416     0.2789     2.4560      2.007
   3135.500    100.148     0.2882     2.3929      1.595
   3136.000    105.818     0.3062     2.4693      3.123
   3136.500    102.136     0.3388     2.3823      7.448
   3137.000     94.220     0.3394     2.4413      7.252
   3137.500    100.530     0.3794     2.4386      4.190
   3138.000     82.093     0.3806     2.4620      7.245
   3138.500     93.978     0.3637     2.5299      3.831
   3139.000    101.625     0.3696     2.5022      5.742
   3139.500     86.749     0.2914     2.5099      0.500
   3140.000     79.535     0.3814     2.5683      0.638
   3140.500    102.519     0.2915     2.4073      0.500
   3141.000     82.208     0.3230     2.3766      3.401
   3141.500     94.856     0.3570     2.4521      0.983
   3142.000     82.562     0.3074     2.5005      5.387
   3142.500     94.257     0.3970     2.4515      9.276
   3143.000     97.717     0.4055     2.4949      5.685
