~VERSION INFORMATION
 VERS.                    2.0 : CWLS Log ASCII Standard - VERSION 2.0
 WRAP.                     NO : ONE LINE PER DEPTH STEP

~WELL INFORMATION
 WELL.              Well-Alpha : WELL NAME
 FLD .                FIELD-A : FIELD NAME
 LOC .         SEC 12 T5N R6E : LOCATION
 CTRY.                    USA : COUNTRY
 SRVC.           SYNTH LOGGER : SERVICE COMPANY
 DATE.              2024-01-15 : LOG DATE
 UWI .       30-045-20130-00-00 : UNIQUE WELL ID

~CURVE INFORMATION
 DEPT.M                      : DEPTH
 GR  .GAPI                   : GAMMA RAY
 NPHI.V/V                    : NEUTRON POROSITY
 RHOB.G/CC                   : BULK DENSITY
 RT  .OHMM                   : TRUE RESISTIVITY

~PARAMETER INFORMATION
 STRT.M            1500.00 : START DEPTH
 STOP.M            3000.50 : STOP DEPTH
 STEP.M                  0.5 : STEP
 NULL.              -999.25 : NULL VALUE

~ASCII LOG DATA
# ...
   2143.500     25.133     0.2194     2.3370    126.701
   2144.000     22.257     0.2504     2.4351    164.489
   2144.500     45.069     0.2200     2.3169     66.902
   2145.000     31.874     0.1947     2.4540     52.642
   2145.500     35.066     0.2223     2.2515    128.087
   2146.000     47.965     0.2803     2.3860     94.919
   2146.500     23.983     0.2055     2.3755     63.693
   2147.000     41.639     0.2392     2.3454     56.355
   2147.500     18.806     0.2116     2.4432    117.391
   2148.000     32.758     0.1842     2.2834     82.363
   2148.500     46.912     0.2243     2.4221    179.571
   2149.000     36.119     0.2518     2.3754     96.789
   2149.500     50.956     0.2324     2.3064     70.165
   2150.000     34.657     0.2658     2.4379    127.908
   2150.500     30.895     0.2177     2.3301     74.051
   2151.000     24.865     0.1854     2.4066    108.545
   2151.500     29.830     0.2625     2.3168    107.296
   2152.000     31.942     0.2184     2.4273    103.621
   2152.500     20.452     0.2436     2.3965    151.158
   2153.000     28.794     0.2606     2.2875     69.491
   2153.500     34.859     0.2106     2.3790    166.929
   2154.000     45.417     0.2528     2.2954    151.134
   2154.500     42.188     0.2027     2.3241     86.987
   2155.000     42.677     0.2048     2.2877     64.822
   2155.500     22.209     0.1946     2.2436     79.125
   2156.000     27.805     0.2645     2.2912     86.689
   2156.500     40.750     0.2035     2.3680    118.268
   2157.000     36.317     0.2505     2.3544     46.800
   2157.500     17.423     0.2722     2.3560    167.304
   2158.000     44.534     0.2314     2.3037     54.676
   2158.500     43.022     0.2367     2.3797     78.494
   2159.000     36.610     0.2285     2.3923     54.485
   2159.500     21.071     0.2231     2.3294     74.467
   2160.000     44.036     0.2199     2.4238    157.624
   2160.500     35.876     0.2491     2.3768    126.849
   2161.000     42.391     0.2776     2.3879     71.509
   2161.500     41.245     0.2733     2.3026    161.162
   2162.000     45.818     0.2705     2.2424    152.537
   2162.500     35.517     0.2732     2.4233    144.862
   2163.000     23.288     0.2326     2.4113    158.978
   2163.500     39.388     0.2526     2.2599    126.289
   2164.000     38.622     0.2693     2.3508    109.982
   2164.500     45.512     0.2262     2.3719     92.511
   2165.000     22.623     0.2730     2.3791     71.490
   2165.500     27.200     0.2201     2.4227    118.091
   2166.000     47.656     0.2392     2.2727    165.264
   2166.500     40.733     0.2483     2.3351    124.015
   2167.000     50.181     0.2754     2.2613    169.641
   2167.500     43.840     0.2089     2.3352     89.880
   2168.000     36.899     0.2579     2.2528    137.372
   2168.500     35.905     0.2290     2.4368    131.502
   2169.000     47.132     0.2034     2.3701    133.535
   2169.500     37.275     0.2534     2.4171    130.091
   2170.000     36.910     0.2357     2.2697     71.042
   2170.500     22.607     0.2382     2.3109     60.093
   2171.000     35.955     0.2078     2.3006    176.865
   2171.500     37.581     0.2258     2.3342     45.874
   2172.000     28.757     0.2470     2.4059    105.910
   2172.500     25.693     0.2198     2.3393     99.318
   2173.000     30.409     0.2049     2.2859     90.481
   2173.500     26.656     0.2771     2.2700    149.474
   2174.000     27.034     0.2288     2.2758    144.687
   2174.500     31.260     0.2512     2.3902    166.960
   2175.000     47.137     0.2153     2.3323     95.241
   2175.500     36.190     0.2275     2.3882    118.778
   2176.000     25.939     0.2263     2.3973    164.868
   2176.500     23.070     0.2239     2.2653    178.584
   2177.000     39.029     0.2279     2.2818    175.299
   2177.500     30.303     0.2321     2.4083    140.763
   2178.000     43.508     0.2248     2.3959     60.202
   2178.500     39.232     0.1941     2.3384     42.763
   2179.000     46.604     0.2250     2.2462    155.471
   2179.500     27.450     0.1936     2.2585    156.950
   2180.000     38.484     0.1881     2.3058    144.558
   2180.500     29.005     0.2721     2.2368     79.021
   2181.000     50.865     0.2409     2.2852    130.622
   2181.500     36.569     0.2449     2.3496     84.568
   2182.000     33.681     0.2278     2.2806    102.614
   2182.500     28.916     0.2750     2.2789     93.057
   2183.000     27.796     0.2399     2.4389    168.228
   2183.500     43.773     0.2585     2.3535     73.222
   2184.000     28.507     0.2134     2.4393    121.795
   2184.500     37.638     0.2740     2.3301     91.116
   2185.000     30.374     0.2644     2.3814    133.069
   2185.500     40.368     0.2687     2.3046    119.750
   2186.000     46.629     0.1943     2.3675    169.394
   2186.500     45.741     0.2016     2.2772     54.241
   2187.000     40.644     0.2090     2.2544     70.283
   2187.500     27.220     0.2093     2.4439    148.043
   2188.000     22.288     0.2623     2.3581     91.696
   2188.500     41.245     0.1873     2.4455     63.160
   2189.000     31.305     0.1908     2.3210    110.068
   2189.500     33.144     0.2041     2.2992    131.913
   2190.000     23.982     0.2056     2.3485     46.769
   2190.500     25.054     0.2090     2.3816     80.376
   2191.000     17.566     0.2701     2.3824    153.574
   2191.500     42.509     0.2449     2.4335    113.232
   2192.000     29.440     0.1761     2.2516     44.330
   2192.500     35.173     0.2276     2.3956     79.794
   2193.000     21.434     0.2252     2.3091    129.700
   2193.500     39.776     0.1897     2.2672     68.222
   2194.000     27.918     0.2499     2.3510    156.828
   2194.500     48.641     0.2408     2.3548    136.201
   2195.000     46.389     0.2426     2.2928    106.611
   2195.500     29.283     0.2443     2.2785    168.318
   2196.000     47.495     0.1820     2.3374     95.171
   2196.500     51.326     0.2776     2.3307     73.127
   2197.000     42.845     0.2601     2.3138    133.772
   2197.500     47.092     0.2790     2.2894    120.330
   2198.000     30.370     0.1865     2.2458     86.728
   2198.500     34.449     0.2654     2.4457     88.387
   2199.000     22.574     0.2601     2.4496     96.793
   2199.500     22.238     0.2590     2.3570     80.275
   2200.000     51.365     0.1914     2.4368    139.098
   2200.500     27.366     0.2537     2.3786    130.827
   2201.000     45.703     0.2716     2.2623    101.110
   2201.500     40.984     0.2563     2.2817     95.224
   2202.000     45.252     0.2373     2.4307     91.577
   2202.500     50.797     0.2725     2.3768     79.795
   2203.000     25.872     0.2230     2.4311     51.351
   2203.500     19.524     0.2480     2.4263     77.891
   2204.000     32.780     0.2322     2.3543     85.141
   2204.500     24.058     0.2725     2.2437    117.152
   2205.000     20.685     0.1826     2.2837    148.028
   2205.500     32.530     0.2259     2.2497     94.785
   2206.000     42.723     0.2463     2.2889    172.606
   2206.500     37.625     0.2617     2.3396    156.242
   2207.000     28.370     0.2421     2.2720    177.320
   2207.500     37.932     0.2673     2.2786    162.787
   2208.000     26.391     0.2782     2.3256    126.034
   2208.500     19.434     0.1819     2.3348    124.273
   2209.000     42.033     0.2172     2.3433     58.465
   2209.500     41.043     0.1751     2.3313    141.745
   2210.000     42.361     0.2055     2.3945    123.608
   2210.500     19.842     0.2291     2.4339    110.626
   2211.000     45.170     0.2710     2.2625    136.875
   2211.500     38.794     0.2597     2.2627    101.902
   2212.000     34.528     0.2002     2.4120    113.525
   2212.500     38.142     0.1846     2.3406     95.231
   2213.000     45.256     0.2398     2.3963    141.193
   2213.500     37.264     0.2398     2.3172    163.597
   2214.000     38.880     0.2071     2.4043    158.273
   2214.500     49.994     0.2681     2.4198    150.294
