~VERSION INFORMATION
 VERS.                    2.0 : CWLS Log ASCII Standard - VERSION 2.0
 WRAP.                     NO : ONE LINE PER DEPTH STEP

~WELL INFORMATION
 WELL.              Well-Alpha : WELL NAME
 FLD .                FIELD-A : FIELD NAME
 LOC .         SEC 12 T5N R6E : LOCATION
 CTRY.                    USA : COUNTRY
 SRVC.           SYNTH LOGGER : SERVICE COMPANY
 DATE.              2024-01-15 : LOG DATE
 UWI .       30-045-20130-00-00 : UNIQUE WELL ID

~CURVE INFORMATION
 DEPT.M                      : DEPTH
 GR  .GAPI                   : GAMMA RAY
 NPHI.V/V                    : NEUTRON POROSITY
 RHOB.G/CC                   : BULK DENSITY
 RT  .OHMM                   : TRUE RESISTIVITY

~PARAMETER INFORMATION
 STRT.M            1500.00 : START DEPTH
 STOP.M            3000.50 : STOP DEPTH
 STEP.M                  0.5 : STEP
 NULL.              -999.25 : NULL VALUE

~ASCII LOG DATA
# ...
   2286.500     34.321     0.2568     2.2832     87.750
   2287.000     26.668     0.2360     2.3874     99.685
   2287.500     32.758     0.2579     2.3285    140.502
   2288.000     42.519     0.1949     2.2583     69.709
   2288.500     34.540     0.1850     2.3217    105.871
   2289.000     32.327     0.2676     2.3756    131.075
   2289.500     45.862     0.1887     2.3722    115.259
   2290.000     30.886     0.2068     2.3423    124.496
   2290.500     46.907     0.2415     2.3387    115.362
   2291.000     32.591     0.2145     2.2779     67.139
   2291.500     28.545     0.2618     2.4554     97.755
   2292.000     35.156     0.2103     2.4380    114.321
   2292.500     41.625     0.1798     2.3845    149.313
   2293.000     17.581     0.1987     2.2253    132.567
   2293.500     26.150     0.2475     2.3464    100.222
   2294.000     47.435     0.2076     2.3745    176.685
   2294.500     26.029     0.2336     2.4499     54.849
   2295.000     41.030     0.2705     2.4526     69.732
   2295.500     41.435     0.2676     2.4292     88.401
   2296.000     34.358     0.2098     2.2537     72.447
   2296.500     37.689     0.2212     2.4411    127.559
   2297.000     28.064     0.2358     2.3676     45.075
   2297.500     35.839     0.2640     2.4008     65.600
   2298.000     31.949     0.2857     2.3227     81.504
   2298.500     38.528     0.2035     2.3193    135.567
   2299.000     24.738     0.2447     2.3170    162.483
   2299.500     35.502     0.2209     2.2608    151.178
   2300.000     27.927     0.1890     2.3531     65.872
   2300.500     27.179     0.1763     2.4149    119.242
   2301.000     27.883     0.2250     2.2723     44.402
   2301.500     22.956     0.2263     2.2795     83.940
   2302.000     46.334     0.1784     2.2694    153.199
   2302.500     26.638     0.2443     2.3372    103.496
   2303.000     48.336     0.2062     2.4502     61.003
   2303.500     51.144     0.2330     2.2829    101.604
   2304.000     36.738     0.2083     2.2787     67.969
   2304.500     22.232     0.1946     2.4370     94.252
   2305.000     32.230     0.2245     2.4195    107.794
   2305.500     42.250     0.2066     2.2516     89.267
   2306.000     30.213     0.2258     2.3906    171.497
   2306.500     23.141     0.1969     2.3690    119.559
   2307.000     39.425     0.2371     2.4220    157.230
   2307.500     45.407     0.1972     2.3398    146.951
   2308.000     43.924     0.2488     2.4583    132.751
   2308.500     26.729     0.2566     2.2552    109.039
   2309.000     40.284     0.1897     2.3023     39.421
   2309.500     27.886     0.2266     2.3293    126.356
   2310.000     28.703     0.1851     2.3220     89.342
   2310.500     45.567     0.2441     2.4346     55.830
   2311.000     20.940     0.2045     2.3681    102.474
   2311.500     26.262     0.2322     2.2495    142.973
   2312.000     22.437     0.2354     2.3548    174.922
   2312.500     46.053     0.2708     2.3414     92.590
   2313.000     43.100     0.2346     2.4513    117.654
   2313.500     41.153     0.2365     2.3791    159.536
   2314.000     42.305     0.2197     2.3538     87.090
   2314.500     20.376     0.2733     2.3997     59.475
   2315.000     30.739     0.2550     2.4268     80.245
   2315.500     31.374     0.2050     2.3846    165.625
   2316.000     22.680     0.2636     2.2948     61.860
   2316.500     37.493     0.2283     2.4137     85.985
   2317.000     46.156     0.2660     2.3843    105.270
   2317.500     20.583     0.2544     2.3851    158.365
   2318.000     26.975     0.1967     2.4453    170.842
   2318.500     25.185     0.2469     2.3998     99.165
   2319.000     23.361     0.2013     2.4143    170.576
   2319.500     46.482     0.2111     2.4423     62.884
   2320.000     33.938     0.2092     2.2630     62.281
   2320.500     33.716     0.2627     2.3419    172.117
   2321.000     47.116     0.2013     2.3603    110.940
   2321.500     28.302     0.1762     2.3098     66.493
   2322.000     33.116     0.2472     2.4181    108.107
   2322.500     28.812     0.1949     2.4037    149.751
   2323.000     37.709     0.1934     2.3899    157.082
   2323.500     50.740     0.2073     2.4427    159.828
   2324.000     41.362     0.2326     2.3017    119.675
   2324.500     30.314     0.2216     2.4115    161.726
   2325.000     47.992     0.1849     2.3457    110.913
   2325.500     24.606     0.2736     2.3239    124.921
   2326.000     22.238     0.2534     2.2658    145.621
   2326.500     24.273     0.2192     2.4328     99.850
   2327.000     30.098     0.2162     2.3796     49.966
   2327.500     34.645     0.2188     2.4018     88.808
   2328.000     37.103     0.2460     2.3626    127.801
   2328.500     49.629     0.1841     2.2835     67.205
   2329.000     32.518     0.1870     2.3292     61.261
   2329.500     35.638     0.2647     2.3103     81.910
   2330.000     20.797     0.2087     2.4357     44.532
   2330.500     21.877     0.2198     2.2524    145.138
   2331.000     35.852     0.2767     2.4542     76.317
   2331.500     34.880     0.2469     2.4470     58.052
   2332.000     43.296     0.2136     2.4542    137.864
   2332.500     27.135     0.2541     2.3398    158.430
   2333.000     20.692     0.1801     2.4319     42.569
   2333.500     30.814     0.2555     2.3438     73.374
   2334.000     28.485     0.2309     2.2602    172.908
   2334.500     21.091     0.2565     2.2900     93.829
   2335.000     38.322     0.2774     2.4225    171.481
   2335.500     24.013     0.2835     2.2650     77.918
   2336.000     40.263     0.2766     2.3718     70.994
   2336.500     30.996     0.2270     2.2629     70.395
   2337.000     24.448     0.2277     2.3007     51.316
   2337.500     31.683     0.2299     2.2650    166.586
   2338.000     44.144     0.2511     2.4198    177.376
   2338.500     34.742     0.2679     2.3759    173.515
   2339.000     40.902     0.2041     2.4190    159.883
   2339.500     22.835     0.2724     2.3818    158.303
   2340.000     41.514     0.2616     2.4424    133.205
   2340.500     24.210     0.2772     2.3546    155.082
   2341.000     40.817     0.2729     2.3864     69.057
   2341.500     40.176     0.2123     2.3684     94.264
   2342.000     47.477     0.1898     2.3644    129.445
   2342.500     29.856     0.1836     2.4093    162.100
   2343.000     22.359     0.2093     2.3935    132.222
   2343.500     21.753     0.2378     2.4007    157.197
   2344.000     44.493     0.2581     2.4033    106.118
   2344.500     38.549     0.2693     2.2921    141.140
   2345.000     41.633     0.2371     2.3918    177.414
   2345.500     26.459     0.1725     2.2860     61.444
   2346.000     30.944     0.2001     2.3706    170.151
   2346.500     21.689     0.1901     2.3823    113.083
   2347.000     48.939     0.2163     2.4265    129.653
   2347.500     37.479     0.2327     2.2557    162.099
   2348.000     52.672     0.1810     2.2558     97.846
   2348.500     27.493     0.2165     2.2781     97.504
   2349.000     38.564     0.2046     2.3425    113.051
   2349.500     41.589     0.2434     2.4060     42.927
   2350.000     28.253     0.2359     2.4089    109.525
   2350.500     45.557     0.2298     2.3911     81.482
   2351.000     47.060     0.2185     2.4347    169.592
   2351.500     47.377     0.2799     2.3199     52.668
   2352.000     41.620     0.2009     2.3017    104.217
   2352.500     28.861     0.2369     2.2585    172.920
   2353.000     26.355     0.2557     2.4213    166.230
   2353.500     47.243     0.2340     2.4154    138.441
   2354.000     17.578     0.2805     2.3926    122.618
   2354.500     40.060     0.2153     2.3071     79.449
   2355.000     36.040     0.2155     2.3294     90.830
   2355.500     38.066     0.1933     2.4487     52.657
   2356.000     48.635     0.2426     2.2593    150.356
   2356.500     29.658     0.2152     2.4127     85.316
   2357.000     30.288     0.1916     2.3190    133.439
   2357.500     24.882     0.2332     2.2532     89.122
