~VERSION INFORMATION
 VERS.                    2.0 : CWLS Log ASCII Standard - VERSION 2.0
 WRAP.                     NO : ONE LINE PER DEPTH STEP

~WELL INFORMATION
 WELL.              Well-Alpha : WELL NAME
 FLD .                FIELD-A : FIELD NAME
 LOC .         SEC 12 T5N R6E : LOCATION
 CTRY.                    USA : COUNTRY
 SRVC.           SYNTH LOGGER : SERVICE COMPANY
 DATE.              2024-01-15 : LOG DATE
 UWI .       30-045-20130-00-00 : UNIQUE WELL ID

~CURVE INFORMATION
 DEPT.M                      : DEPTH
 GR  .GAPI                   : GAMMA RAY
 NPHI.V/V                    : NEUTRON POROSITY
 RHOB.G/CC                   : BULK DENSITY
 RT  .OHMM                   : TRUE RESISTIVITY

~PARAMETER INFORMATION
 STRT.M            1500.00 : START DEPTH
 STOP.M            3000.50 : STOP DEPTH
 STEP.M                  0.5 : STEP
 NULL.              -999.25 : NULL VALUE

~ASCII LOG DATA
# ...
   2358.000     38.473     0.2314     2.4140    105.773
   2358.500     30.107     0.1923     2.3083    117.017
   2359.000     29.395     0.2531     2.3988    151.950
   2359.500     44.050     0.2435     2.3855     69.168
   2360.000     49.802     0.2000     2.3400     95.976
   2360.500     22.205     0.2212     2.4091     58.382
   2361.000     30.545     0.2559     2.3855     50.936
   2361.500     47.383     0.2369     2.3068    125.006
   2362.000     23.023     0.2310     2.3819     67.334
   2362.500     23.999     0.2146     2.3700     48.219
   2363.000     23.395     0.2442     2.2444    165.178
   2363.500     37.028     0.2763     2.4409    114.687
   2364.000     25.404     0.2437     2.3568     58.295
   2364.500     47.444     0.1937     2.4060     47.307
   2365.000     35.814     0.2258     2.4316     56.005
   2365.500     36.264     0.2681     2.3411    105.569
   2366.000     27.743     0.1888     2.3485    132.741
   2366.500     34.911     0.2786     2.3228    130.383
   2367.000     38.924     0.2725     2.3578     60.275
   2367.500     41.283     0.1889     2.4245    129.629
   2368.000     41.767     0.2729     2.4166     97.236
   2368.500     38.337     0.2154     2.2707    105.669
   2369.000     47.533     0.2669     2.3789    152.130
   2369.500     43.677     0.2222     2.4497     86.795
   2370.000     44.211     0.2213     2.3694     60.132
   2370.500     21.320     0.2396     2.3989    162.017
   2371.000     18.820     0.2579     2.4091     69.705
   2371.500     26.882     0.1796     2.3341     80.295
   2372.000     37.880     0.2352     2.3140    138.669
   2372.500     28.961     0.1947     2.3865    136.094
   2373.000     32.062     0.2159     2.3794    151.811
   2373.500     45.223     0.2208     2.3541     65.373
   2374.000     46.359     0.2286     2.3870     89.127
   2374.500     45.342     0.2178     2.4194     57.998
   2375.000     31.834     0.1904     2.3184    115.926
   2375.500     39.409     0.1953     2.2551     80.847
   2376.000     27.285     0.1916     2.3160    136.460
   2376.500     26.474     0.2312     2.3496     40.477
   2377.000     22.786     0.2801     2.3169     49.009
   2377.500     27.362     0.1902     2.3753    100.321
   2378.000     33.661     0.2746     2.2572    174.105
   2378.500     44.039     0.2554     2.3468    165.342
   2379.000     21.794     0.2407     2.3204    179.423
   2379.500     43.255     0.2327     2.3534     97.655
   2380.000     34.320     0.2647     2.3380     46.073
   2380.500     28.089     0.1955     2.3201     82.403
   2381.000     32.992     0.2308     2.4351    134.400
   2381.500     29.605     0.2467     2.2868     59.108
   2382.000     40.547     0.2370     2.3917     82.939
   2382.500     29.293     0.2531     2.4427     47.822
   2383.000     25.157     0.1856     2.3635    106.825
   2383.500     25.211     0.2435     2.4186     69.816
   2384.000     35.558     0.2299     2.2792     53.518
   2384.500     44.810     0.2121     2.3276     98.138
   2385.000     31.161     0.2076     2.3567     88.798
   2385.500     43.993     0.2371     2.2669    114.527
   2386.000     41.541     0.2723     2.3475    144.551
   2386.500     48.678     0.2271     2.3363     55.844
   2387.000     44.825     0.2569     2.3832    150.386
   2387.500     35.200     0.2240     2.4302     42.868
   2388.000     41.441     0.1909     2.2546    101.427
   2388.500     48.572     0.1743     2.3256    123.744
   2389.000     29.709     0.1901     2.3313    173.870
   2389.500     30.533     0.2184     2.3373    121.249
   2390.000     21.630     0.2176     2.4072     62.108
   2390.500     46.561     0.2507     2.3383    112.852
   2391.000     43.879     0.2623     2.2581     95.338
   2391.500     21.419     0.1832     2.3739    107.113
   2392.000     36.301     0.1889     2.4246     67.983
   2392.500     31.905     0.2030     2.3610    109.915
   2393.000     23.459     0.2373     2.3619     60.408
   2393.500     48.923     0.1952     2.2740    143.763
   2394.000     30.731     0.1928     2.3037    122.742
   2394.500     23.806     0.2694     2.2928     51.036
   2395.000     39.785     0.2605     2.3380    163.598
   2395.500     43.109     0.1980     2.4335    126.446
   2396.000     20.239     0.2205     2.3544     84.888
   2396.500     39.211     0.2183     2.3037     46.136
   2397.000     35.601     0.2600     2.3089    128.184
   2397.500     23.474     0.2298     2.3146     93.265
   2398.000     25.954     0.1878     2.3709    167.803
   2398.500     37.041     0.2607     2.3339     45.097
   2399.000     28.310     0.2296     2.3307     45.101
   2399.500     46.961     0.2150     2.3720    173.194
   2400.000     41.777     0.2210     2.2987    174.578
   2400.500     52.074     0.2214     2.2658     43.222
   2401.000     32.201     0.2053     2.2326    140.471
   2401.500     51.490     0.2014     2.3135     70.770
   2402.000     30.419     0.2196     2.2666    137.183
   2402.500     32.000     0.1814     2.3199    161.916
   2403.000     23.558     0.2582     2.4071     54.846
   2403.500     20.776     0.1901     2.3856     73.757
   2404.000     41.738     0.1924     2.3697     43.121
   2404.500     32.825     0.2529     2.4127     45.066
   2405.000     29.854     0.2508     2.3202     44.220
   2405.500     39.150     0.2521     2.4048    151.767
   2406.000     25.751     0.2289     2.3203     81.310
   2406.500     38.669     0.2068     2.3270    108.076
   2407.000     32.894     0.2536     2.3460    151.237
   2407.500     45.103     0.2513     2.2767    108.744
   2408.000     45.580     0.2024     2.4287     99.177
   2408.500     34.181     0.2711     2.2765     42.468
   2409.000     28.256     0.1952     2.3254    119.541
   2409.500     30.573     0.2803     2.3361     57.402
   2410.000     45.218     0.2689     2.2615    147.205
   2410.500     29.589     0.2405     2.2686     76.301
   2411.000     27.873     0.2846     2.2622    134.493
   2411.500     21.756     0.2440     2.3080    129.718
   2412.000     33.348     0.1998     2.4280    125.542
   2412.500     36.126     0.2235     2.3248     77.009
   2413.000     45.671     0.1866     2.2779     77.138
   2413.500     25.814     0.2233     2.3844    160.647
   2414.000     33.497     0.2506     2.4657     41.907
   2414.500     42.875     0.2165     2.2936     65.273
   2415.000     43.255     0.2073     2.2937    125.084
   2415.500     25.879     0.2451     2.4475    154.584
   2416.000     32.666     0.2686     2.2729     90.525
   2416.500     31.716     0.1879     2.3410    131.078
   2417.000     43.832     0.2226     2.2897    117.318
   2417.500     21.655     0.2058     2.4240     49.126
   2418.000     48.891     0.2586     2.4580    126.835
   2418.500     36.026     0.1922     2.4134    154.365
   2419.000     34.926     0.2473     2.3200    178.450
   2419.500     23.261     0.2060     2.3358     43.547
   2420.000     38.354     0.2036     2.2964    132.091
   2420.500     32.813     0.2772     2.4378     98.297
   2421.000     22.984     0.1782     2.4281     41.194
   2421.500     37.772     0.2274     2.3321    125.966
   2422.000     49.424     0.1872     2.3742     56.892
   2422.500     37.428     0.2228     2.2971     93.507
   2423.000     45.158     0.2311     2.3359     76.833
   2423.500     23.995     0.2118     2.3823     89.802
   2424.000     32.698     0.1932     2.3213    109.428
   2424.500     22.820     0.2129     2.3300     90.585
   2425.000     44.413     0.2381     2.2579    117.925
   2425.500     49.408     0.2545     2.3946     73.147
   2426.000     38.516     0.2286     2.4279    128.481
   2426.500     21.855     0.2407     2.4451    159.485
   2427.000     28.885     0.2019     2.3909     71.451
   2427.500     31.711     0.2103     2.3736    111.695
   2428.000     32.722     0.1892     2.2917    131.135
   2428.500     48.574     0.1993     2.4454    119.122
   2429.000     41.179     0.1994     2.3595     91.127
