~VERSION INFORMATION
 VERS.                    2.0 : CWLS Log ASCII Standard - VERSION 2.0
 WRAP.                     NO : ONE LINE PER DEPTH STEP

~WELL INFORMATION
 WELL.              Well-Alpha : WELL NAME
 FLD .                FIELD-A : FIELD NAME
 LOC .         SEC 12 T5N R6E : LOCATION
 CTRY.                    USA : COUNTRY
 SRVC.           SYNTH LOGGER : SERVICE COMPANY
 DATE.              2024-01-15 : LOG DATE
 UWI .       30-045-20130-00-00 : UNIQUE WELL ID

~CURVE INFORMATION
 DEPT.M                      : DEPTH
 GR  .GAPI                   : GAMMA RAY
 NPHI.V/V                    : NEUTRON POROSITY
 RHOB.G/CC                   : BULK DENSITY
 RT  .OHMM                   : TRUE RESISTIVITY

~PARAMETER INFORMATION
 STRT.M            1500.00 : START DEPTH
 STOP.M            3000.50 : STOP DEPTH
 STEP.M                  0.5 : STEP
 NULL.              -999.25 : NULL VALUE

~ASCII LOG DATA
# ...
   2572.500    115.314     0.2778     2.5642      3.297
   2573.000    100.612     0.3629     2.5803      3.232
   2573.500     93.263     0.3131     2.6248     10.756
   2574.000    100.965     0.3085     2.5534      6.770
   2574.500    109.680     0.3397     2.5455      9.674
   2575.000     92.034     0.3063     2.5093      5.547
   2575.500     89.736     0.3742     2.5052      6.797
   2576.000    107.710     0.2994     2.5891     11.515
   2576.500    109.303     0.3299     2.5517      5.392
   2577.000     88.053     0.3543     2.4878      8.946
   2577.500     90.719     0.3432     2.4704      3.352
   2578.000     87.208     0.3014     2.5436      2.585
   2578.500     91.957     0.3228     2.5398     10.206
   2579.000     98.582     0.3511     2.5727     10.100
   2579.500    110.468     0.3744     2.5254      8.229
   2580.000    104.403     0.3642     2.4950      4.424
   2580.500    104.498     0.3116     2.5518      4.216
   2581.000     91.094     0.3781     2.6152     11.026
   2581.500    112.964     0.2797     2.4716      4.309
   2582.000    100.799     0.2833     2.5910      9.993
   2582.500    117.671     0.3653     2.5716      5.126
   2583.000    109.180     0.2984     2.5922     11.779
   2583.500     82.178     0.2925     2.4693     10.777
   2584.000    106.527     0.3035     2.6326      1.789
   2584.500     91.691     0.3272     2.5549      8.932
   2585.000    107.093     0.3515     2.6147      3.411
   2585.500     85.529     0.3562     2.4947      1.776
   2586.000     85.026     0.3061     2.6131      5.558
   2586.500    113.327     0.3385     2.6017      7.597
   2587.000     90.396     0.3692     2.5320      3.609
   2587.500    113.668     0.3593     2.5428      8.684
   2588.000     91.521     0.3111     2.5709      2.849
   2588.500    103.785     0.3906     2.4624      1.976
   2589.000    107.623     0.3498     2.5917      8.132
   2589.500    102.769     0.2821     2.4418      7.067
   2590.000     88.993     0.2900     2.4855      8.739
   2590.500     87.111     0.2971     2.5945      8.039
   2591.000     77.696     0.3517     2.4781     10.265
   2591.500     93.232     0.2953     2.6562      6.087
   2592.000    108.577     0.3336     2.6173      1.639
   2592.500    117.165     0.2946     2.5640      8.109
   2593.000    112.837     0.3760     2.6364      8.111
   2593.500    108.690     0.3120     2.6297      7.507
   2594.000    110.944     0.3659     2.4858      8.022
   2594.500    105.998     0.3544     2.6455      5.195
   2595.000     92.235     0.2759     2.4881      3.488
   2595.500    114.950     0.3246     2.5032      8.597
   2596.000    107.699     0.2822     2.5762      4.906
   2596.500    101.807     0.3695     2.5697      6.494
   2597.000     82.950     0.3458     2.4589      7.351
   2597.500     97.221     0.2900     2.5165      5.177
   2598.000     99.087     0.2848     2.5785      8.253
   2598.500    116.412     0.3216     2.5370      2.102
   2599.000    101.362     0.3760     2.6152     12.159
   2599.500     92.808     0.3440     2.5989      9.330
   2600.000    121.071     0.3682     2.4960      5.726
   2600.500     82.632     0.3193     2.4750      3.888
   2601.000     97.424     0.2894     2.5723      3.233
   2601.500     81.631     0.3686     2.5538      7.619
   2602.000    109.279     0.2850     2.4774      5.423
   2602.500    115.749     0.3818     2.5237      3.845
   2603.000     92.442     0.3263     2.5020      5.160
   2603.500    107.170     0.2749     2.4632      7.120
   2604.000     93.962     0.3482     2.5712      8.743
   2604.500    114.606     0.3778     2.6071      9.066
   2605.000    110.974     0.3799     2.5435     10.370
   2605.500    112.906     0.2953     2.6067      4.130
   2606.000     83.270     0.2945     2.4498      8.181
   2606.500    118.908     0.3376     2.5334      1.740
   2607.000    107.409     0.3420     2.5691      7.164
   2607.500     88.981     0.3568     2.5805      7.299
   2608.000    112.478     0.2941     2.6012      3.264
   2608.500     87.344     0.3708     2.5999      5.398
   2609.000    113.653     0.3505     2.6049     10.026
   2609.500     83.918     0.3761     2.4742      3.562
   2610.000    106.768     0.3431     2.5946      6.074
   2610.500    101.711     0.3211     2.5977     10.591
   2611.000     83.389     0.3830     2.6460      7.396
   2611.500     89.020     0.3348     2.5822      9.306
   2612.000     75.648     0.3692     2.5850     10.323
   2612.500     96.161     0.3724     2.5511      4.076
   2613.000     93.336     0.3538     2.6226      3.780
   2613.500    105.543     0.3405     2.6557      9.197
   2614.000     88.212     0.2907     2.6088      9.583
   2614.500     90.367     0.2829     2.5673      2.443
   2615.000    111.872     0.3080     2.4584      5.077
   2615.500     80.490     0.3011     2.5976      6.090
   2616.000    115.893     0.3059     2.5824     10.255
   2616.500    116.974     0.3122     2.6008      5.432
   2617.000    105.989     0.3245     2.4696     10.908
   2617.500    102.719     0.3214     2.6050     12.651
   2618.000    115.378     0.2895     2.4964      9.714
   2618.500     91.120     0.2739     2.5941      7.933
   2619.000     84.051     0.3467     2.4925      5.004
   2619.500     89.619     0.3351     2.5823      1.534
   2620.000    110.734     0.3206     2.5190      7.930
   2620.500     82.464     0.3384     2.4493      5.453
   2621.000    104.632     0.3535     2.5634      6.107
   2621.500    117.671     0.3198     2.4870      9.009
   2622.000    115.601     0.3512     2.5845      6.686
   2622.500    100.556     0.3679     2.6393     10.392
   2623.000     82.595     0.3679     2.6504      5.196
   2623.500    111.486     0.3270     2.4849      2.334
   2624.000    103.159     0.3567     2.6118      6.621
   2624.500     82.537     0.3029     2.5289     11.364
   2625.000     81.598     0.3408     2.6237     10.065
   2625.500    117.139     0.3800     2.6106      4.273
   2626.000    106.058     0.3318     2.4702      5.989
   2626.500    110.572     0.3770     2.5168     12.000
   2627.000    119.513     0.3270     2.5071      2.345
   2627.500    100.622     0.3807     2.5842      4.615
   2628.000    102.882     0.3444     2.5343      3.867
   2628.500     94.264     0.2986     2.6058      8.329
   2629.000     93.591     0.3390     2.5636      6.037
   2629.500     96.883     0.3080     2.6432      2.592
   2630.000    109.697     0.2828     2.6477      7.815
   2630.500    104.470     0.3628     2.5382      2.275
   2631.000    115.825     0.3137     2.5850      8.070
   2631.500     96.110     0.3601     2.6312      7.698
   2632.000    102.568     0.3098     2.6318      7.475
   2632.500    102.104     0.2982     2.4613      2.388
   2633.000    104.279     0.3798     2.5089      8.001
   2633.500    105.598     0.3136     2.5200      6.315
   2634.000     89.505     0.3340     2.5308      6.444
   2634.500    101.680     0.3432     2.4996      7.869
   2635.000     84.585     0.3459     2.5618      7.672
   2635.500     93.934     0.3700     2.5827      1.997
   2636.000    101.324     0.3422     2.5501      2.695
   2636.500    105.273     0.3300     2.5747      3.806
   2637.000    115.353     0.3665     2.4569      8.591
   2637.500    103.459     0.3028     2.6138      7.889
   2638.000    110.917     0.3308     2.6358      9.344
   2638.500     98.902     0.3751     2.5742      9.258
   2639.000    107.121     0.3495     2.6104     10.530
   2639.500     81.297     0.3624     2.4832      5.266
   2640.000     88.907     0.3461     2.6008      5.898
   2640.500     92.382     0.3565     2.4779     11.147
   2641.000    100.267     0.3784     2.5397      3.843
   2641.500     81.719     0.3034     2.5278      5.944
   2642.000     83.641     0.3026     2.5781      3.308
   2642.500     90.280     0.3294     2.5269     11.318
   2643.000    112.719     0.3516     2.5856      5.739
   2643.500     94.810     0.3066     2.5252      3.092
