~VERSION INFORMATION
 VERS.                    2.0 : CWLS Log ASCII Standard - VERSION 2.0
 WRAP.                     NO : ONE LINE PER DEPTH STEP

~WELL INFORMATION
 WELL.              Well-Alpha : WELL NAME
 FLD .                FIELD-A : FIELD NAME
 LOC .         SEC 12 T5N R6E : LOCATION
 CTRY.                    USA : COUNTRY
 SRVC.           SYNTH LOGGER : SERVICE COMPANY
 DATE.              2024-01-15 : LOG DATE
 UWI .       30-045-20130-00-00 : UNIQUE WELL ID

~CURVE INFORMATION
 DEPT.M                      : DEPTH
 GR  .GAPI                   : GAMMA RAY
 NPHI.V/V                    : NEUTRON POROSITY
 RHOB.G/CC                   : BULK DENSITY
 RT  .OHMM                   : TRUE RESISTIVITY

~PARAMETER INFORMATION
 STRT.M            1500.00 : START DEPTH
 STOP.M            3000.50 : STOP DEPTH
 STEP.M                  0.5 : STEP
 NULL.              -999.25 : NULL VALUE

~ASCII LOG DATA
# ...
   2858.500    119.403     0.2882     2.4811      9.875
   2859.000    112.383     0.3358     2.5657      2.406
   2859.500     79.090     0.3317     2.4589      8.857
   2860.000    116.612     0.3776     2.5998      1.558
   2860.500    109.536     0.3071     2.5614      9.243
   2861.000    108.495     0.3089     2.4718      1.677
   2861.500    100.775     0.3272     2.6232      3.730
   2862.000     96.896     0.3023     2.5542      4.415
   2862.500     95.652     0.3007     2.6377      3.011
   2863.000     84.196     0.3622     2.6052      6.201
   2863.500     86.593     0.3362     2.6425      4.309
   2864.000     90.057     0.3693     2.4745     12.353
   2864.500     97.332     0.3550     2.4691      7.622
   2865.000    106.595     0.3151     2.6405      7.340
   2865.500     98.058     0.3372     2.5469      3.995
   2866.000     84.277     0.3048     2.4885      5.790
   2866.500    118.861     0.3819     2.5964      2.248
   2867.000    114.927     0.3204     2.5059      9.850
   2867.500    110.443     0.3283     2.6035      4.665
   2868.000    119.367     0.3145     2.6206      9.224
   2868.500     98.401     0.3272     2.6357      4.646
   2869.000    119.937     0.2969     2.5173     12.293
   2869.500     82.567     0.3104     2.5377      3.359
   2870.000     91.846     0.3600     2.5396      1.658
   2870.500     86.121     0.3609     2.5491      8.153
   2871.000     90.035     0.3115     2.4885     11.917
   2871.500     84.870     0.3338     2.5425      7.942
   2872.000    107.277     0.3717     2.5627      2.406
   2872.500    114.397     0.2818     2.5536      7.132
   2873.000    105.177     0.3735     2.6107     10.959
   2873.500     84.812     0.2973     2.5652      1.166
   2874.000    107.449     0.3421     2.4916      3.965
   2874.500    106.064     0.3402     2.5732     10.560
   2875.000     99.710     0.3312     2.6020     11.108
   2875.500    106.894     0.3627     2.5214      9.604
   2876.000     86.417     0.2951     2.6058     12.149
   2876.500     92.458     0.3180     2.4705      2.296
   2877.000    116.332     0.3320     2.5248      7.019
   2877.500     89.424     0.3530     2.6334      8.885
   2878.000     93.672     0.2980     2.6435      8.189
   2878.500    115.410     0.3700     2.5714     10.265
   2879.000    106.739     0.3248     2.6024     10.321
   2879.500     86.034     0.3060     2.6237      5.848
   2880.000     86.094     0.3572     2.6334      2.199
   2880.500     81.253     0.2873     2.5412      6.281
   2881.000    104.999     0.3360     2.5644      8.642
   2881.500     98.094     0.2928     2.5378      4.069
   2882.000     82.066     0.3132     2.4606     10.353
   2882.500    116.237     0.3365     2.5547      3.365
   2883.000    103.364     0.3280     2.6175      1.072
   2883.500     90.095     0.3168     2.5901      6.368
   2884.000     99.227     0.3262     2.6272      9.111
   2884.500    108.157     0.2997     2.4500      5.168
   2885.000     84.061     0.3302     2.5745      9.380
   2885.500     94.970     0.3852     2.4493      6.350
   2886.000    112.605     0.3652     2.4943      2.932
   2886.500     96.262     0.2944     2.6313      2.870
   2887.000    101.632     0.2857     2.5575      9.176
   2887.500     98.528     0.3705     2.6049      6.340
   2888.000     83.747     0.3294     2.4836     11.300
   2888.500     83.400     0.3307     2.5425      7.138
   2889.000     98.329     0.3523     2.5665      6.232
   2889.500     86.573     0.3160     2.4907      5.122
   2890.000     80.866     0.3257     2.5172      3.025
   2890.500    115.438     0.3824     2.4770      7.952
   2891.000    120.740     0.3499     2.5771      8.078
   2891.500    110.369     0.2953     2.6336      9.943
   2892.000    113.836     0.2974     2.6029      4.996
   2892.500     88.607     0.2957     2.6555      4.267
   2893.000    124.208     0.3528     2.6271      3.266
   2893.500     88.434     0.3131     2.6151      3.870
   2894.000    116.378     0.2712     2.5387      5.503
   2894.500    122.437     0.3745     2.5646     10.844
   2895.000    111.184     0.2999     2.5109      7.895
   2895.500    122.829     0.2875     2.6354      8.902
   2896.000    106.958     0.3113     2.4720      4.972
   2896.500     91.797     0.3029     2.4614      2.571
   2897.000     96.780     0.3261     2.6419      4.953
   2897.500    103.337     0.3680     2.4544      4.444
   2898.000     82.339     0.3657     2.6486      7.656
   2898.500    104.086     0.3325     2.5971      5.218
   2899.000    121.727     0.3209     2.5114     10.826
   2899.500     87.606     0.3363     2.5873     12.476
   2900.000    113.647     0.2992     2.6071      4.856
   2900.500    117.669     0.2873     2.5002      8.562
   2901.000    115.551     0.3777     2.5866      8.611
   2901.500    114.971     0.3023     2.6140      4.326
   2902.000     98.385     0.2938     2.4989     10.458
   2902.500    118.239     0.3322     2.4668      3.794
   2903.000    110.561     0.3242     2.4878      9.884
   2903.500     85.170     0.2817     2.4962      5.458
   2904.000    100.482     0.2867     2.4686      5.520
   2904.500    107.678     0.3169     2.5938      6.552
   2905.000     90.408     0.3434     2.5295     11.479
   2905.500    105.860     0.3006     2.6135      3.370
   2906.000    110.133     0.3226     2.5138      1.297
   2906.500     84.558     0.3399     2.5352      5.679
   2907.000    107.020     0.3728     2.5760      2.127
   2907.500    109.676     0.3009     2.6150      9.233
   2908.000     97.276     0.2967     2.5472      9.525
   2908.500     80.050     0.3300     2.5411     10.482
   2909.000     86.842     0.3519     2.6248      9.332
   2909.500     96.072     0.2866     2.5091     11.242
   2910.000    118.254     0.3222     2.4629      9.310
   2910.500     90.737     0.2829     2.5390     11.119
   2911.000    103.835     0.2852     2.6142      3.454
   2911.500     89.535     0.3273     2.4581      6.901
   2912.000     92.872     0.2972     2.5693     12.247
   2912.500    117.540     0.3620     2.5597     10.025
   2913.000    108.937     0.3343     2.6328     10.061
   2913.500     83.059     0.3357     2.5089      2.113
   2914.000     94.818     0.3211     2.5055     11.391
   2914.500     81.447     0.3334     2.5339      8.439
   2915.000     99.822     0.2872     2.5163      3.635
   2915.500    104.094     0.3708     2.6016      1.587
   2916.000     85.646     0.3777     2.5830      3.971
   2916.500     92.022     0.2954     2.6117     10.749
   2917.000     97.940     0.2819     2.6160      8.470
   2917.500    119.206     0.2951     2.6138     11.090
   2918.000    119.919     0.3476     2.5598      6.561
   2918.500     79.724     0.3459     2.6469     10.613
   2919.000    108.779     0.3655     2.4890      6.786
   2919.500     98.393     0.3492     2.5923      4.059
   2920.000     96.029     0.3235     2.5528      3.244
   2920.500    113.663     0.3380     2.6052     13.079
   2921.000    117.734     0.3522     2.5515      5.622
   2921.500    119.545     0.3315     2.6053      2.930
   2922.000    104.962     0.3244     2.6351      0.994
   2922.500     91.839     0.3437     2.5714      4.155
   2923.000    112.116     0.3305     2.6030     10.545
   2923.500     87.566     0.3428     2.4527      6.193
   2924.000    101.993     0.3442     2.4858      8.388
   2924.500     95.623     0.3453     2.6472     10.528
   2925.000    104.215     0.3440     2.5825      7.001
   2925.500     90.735     0.3282     2.5575     10.771
   2926.000     84.667     0.3415     2.5244      5.600
   2926.500    119.016     0.3343     2.4538     11.634
   2927.000     82.743     0.3104     2.5133      1.969
   2927.500     98.184     0.2772     2.5326      9.779
   2928.000     85.963     0.3345     2.4957      9.189
   2928.500     80.398     0.3290     2.4795      3.854
   2929.000     77.626     0.3692     2.5350      5.237
   2929.500     85.912     0.3105     2.5796      4.126
