~VERSION INFORMATION
 VERS.                    2.0 : CWLS Log ASCII Standard - VERSION 2.0
 WRAP.                     NO : ONE LINE PER DEPTH STEP

~WELL INFORMATION
 WELL.              Well-Alpha : WELL NAME
 FLD .                FIELD-A : FIELD NAME
 LOC .         SEC 12 T5N R6E : LOCATION
 CTRY.                    USA : COUNTRY
 SRVC.           SYNTH LOGGER : SERVICE COMPANY
 DATE.              2024-01-15 : LOG DATE
 UWI .       30-045-20130-00-00 : UNIQUE WELL ID

~CURVE INFORMATION
 DEPT.M                      : DEPTH
 GR  .GAPI                   : GAMMA RAY
 NPHI.V/V                    : NEUTRON POROSITY
 RHOB.G/CC                   : BULK DENSITY
 RT  .OHMM                   : TRUE RESISTIVITY

~PARAMETER INFORMATION
 STRT.M            1500.00 : START DEPTH
 STOP.M            3000.50 : STOP DEPTH
 STEP.M                  0.5 : STEP
 NULL.              -999.25 : NULL VALUE

~ASCII LOG DATA
# ...
   2429.500     38.465     0.2321     2.3965    129.916
   2430.000     29.790     0.2346     2.3762     43.757
   2430.500     28.703     0.2760     2.4007     92.126
   2431.000     22.832     0.2044     2.2562    113.840
   2431.500     27.927     0.2392     2.2927     42.890
   2432.000     30.433     0.2569     2.3935    111.593
   2432.500     38.614     0.2367     2.4372    131.028
   2433.000     42.433     0.2051     2.3866    147.261
   2433.500     24.690     0.2100     2.3183     55.334
   2434.000     31.235     0.1840     2.3103    178.427
   2434.500     27.909     0.2192     2.3799    125.376
   2435.000     24.358     0.2465     2.3969     91.573
   2435.500     44.166     0.1890     2.3648     75.052
   2436.000     21.372     0.2029     2.3065    120.371
   2436.500     33.145     0.2436     2.4368    164.334
   2437.000     23.935     0.2479     2.3794    112.195
   2437.500     46.424     0.2199     2.4139    131.744
   2438.000     38.286     0.2559     2.2936     89.115
   2438.500     27.200     0.2243     2.3032     93.916
   2439.000     35.158     0.1953     2.4252     79.706
   2439.500     42.933     0.2180     2.2688    138.980
   2440.000     50.077     0.2337     2.3564     90.790
   2440.500     26.488     0.2739     2.3359     67.155
   2441.000     45.637     0.1845     2.3965     92.156
   2441.500     48.408     0.2393     2.3071    159.057
   2442.000     44.305     0.2067     2.2897    143.548
   2442.500     38.642     0.2328     2.4291     86.483
   2443.000     33.951     0.1912     2.3429    167.254
   2443.500     28.745     0.2152     2.2633     50.498
   2444.000     38.920     0.2564     2.2911     47.408
   2444.500     38.034     0.2277     2.4585     59.034
   2445.000     40.351     0.2264     2.2899     56.287
   2445.500     30.330     0.2093     2.3827     51.745
   2446.000     42.927     0.2160     2.3332    131.772
   2446.500     46.711     0.2211     2.4183    123.670
   2447.000     25.410     0.2611     2.3963    131.198
   2447.500     44.610     0.2740     2.3744    136.613
   2448.000     36.674     0.2173     2.2495    146.078
   2448.500     47.143     0.2200     2.4195     69.195
   2449.000     32.001     0.2576     2.3234    127.482
   2449.500     31.431     0.2272     2.4274    120.428
   2450.000     46.937     0.2381     2.3451    172.606
   2450.500     24.308     0.2059     2.3830     72.726
   2451.000     47.160     0.2477     2.2541     47.501
   2451.500     38.635     0.2324     2.4146    131.657
   2452.000     33.675     0.2590     2.3236    142.973
   2452.500     31.179     0.2586     2.3422     79.903
   2453.000     35.507     0.2041     2.2577    119.979
   2453.500     30.022     0.2490     2.2825     47.830
   2454.000     24.194     0.2576     2.2828    174.613
   2454.500     27.119     0.2180     2.3158     55.794
   2455.000     20.162     0.1916     2.4469     49.173
   2455.500     45.748     0.1765     2.3063     46.567
   2456.000     47.644     0.2251     2.3891     99.679
   2456.500     28.042     0.2197     2.2591     54.040
   2457.000     42.709     0.2306     2.3625    144.203
   2457.500     32.037     0.2078     2.3253    166.429
   2458.000     39.690     0.2592     2.4584     75.974
   2458.500     44.735     0.2135     2.4325    127.586
   2459.000     47.751     0.2086     2.3468     45.533
   2459.500     33.487     0.2209     2.3916     94.182
   2460.000     43.758     0.2217     2.2914     80.936
   2460.500     24.007     0.2051     2.3711     72.150
   2461.000     51.590     0.2053     2.2688    129.679
   2461.500     19.994     0.1919     2.3191     57.873
   2462.000     35.565     0.2609     2.3093    161.135
   2462.500     38.907     0.2510     2.3867    133.263
   2463.000     36.837     0.2226     2.3463    139.815
   2463.500     21.112     0.2484     2.4065    170.821
   2464.000     48.442     0.2396     2.3562    172.080
   2464.500     25.889     0.1943     2.2729    116.994
   2465.000     39.295     0.2721     2.4024    108.428
   2465.500     26.687     0.2662     2.4219     87.471
   2466.000     27.831     0.2052     2.4271    140.271
   2466.500     36.285     0.1998     2.3574    114.983
   2467.000     31.641     0.1938     2.4021    170.603
   2467.500     21.555     0.1947     2.4155     73.175
   2468.000     23.583     0.2513     2.2809     84.185
   2468.500     34.323     0.2239     2.2888     84.588
   2469.000     45.895     0.2649     2.2653    152.266
   2469.500     48.241     0.2583     2.3343     53.224
   2470.000     25.611     0.2415     2.3433    103.916
   2470.500     31.964     0.2516     2.4556     99.928
   2471.000     26.492     0.1815     2.3290     50.499
   2471.500     24.607     0.2121     2.3840     97.440
   2472.000     36.385     0.2468     2.3886    111.549
   2472.500     38.516     0.1706     2.3027     49.369
   2473.000     25.063     0.1878     2.2680    111.678
   2473.500     26.166     0.2694     2.3383    174.922
   2474.000     21.695     0.2445     2.3974    177.415
   2474.500     45.131     0.2128     2.4343    114.017
   2475.000     47.770     0.2377     2.3301    112.242
   2475.500     24.011     0.2610     2.4347     79.828
   2476.000     29.353     0.2109     2.3249    179.124
   2476.500     46.417     0.1821     2.3952     77.498
   2477.000     49.048     0.2734     2.3670    104.530
   2477.500     32.035     0.2174     2.2621     40.131
   2478.000     22.423     0.1816     2.2513     88.829
   2478.500     18.763     0.2342     2.2516     50.112
   2479.000     36.219     0.2548     2.3334    144.191
   2479.500     31.582     0.2072     2.3858    117.281
   2480.000     18.307     0.2102     2.2927    120.021
   2480.500     35.837     0.2021     2.3510     80.997
   2481.000     20.965     0.2788     2.2959    153.980
   2481.500     43.881     0.1996     2.4063     41.275
   2482.000     30.806     0.2456     2.4112     86.720
   2482.500     20.007     0.2668     2.3994    132.154
   2483.000     37.766     0.1925     2.3490    167.181
   2483.500     30.587     0.2692     2.3180     72.865
   2484.000     50.626     0.2754     2.4238    115.762
   2484.500     38.707     0.2653     2.2830    115.028
   2485.000     29.224     0.1989     2.3040    161.702
   2485.500     43.406     0.2508     2.2839     47.353
   2486.000     28.210     0.2520     2.4070     99.474
   2486.500     48.738     0.2778     2.3874     66.377
   2487.000     31.392     0.1957     2.3962     42.998
   2487.500     34.446     0.2546     2.3404     59.827
   2488.000     22.011     0.2277     2.2690    176.867
   2488.500     30.793     0.1889     2.4258     70.117
   2489.000     49.649     0.2254     2.3593    170.689
   2489.500     43.501     0.2715     2.3235     69.045
   2490.000     28.020     0.2319     2.3639    170.630
   2490.500     26.758     0.2340     2.2951    131.048
   2491.000     42.052     0.2737     2.2741     55.617
   2491.500     44.115     0.2264     2.3272    122.015
   2492.000     24.359     0.2462     2.2924     84.102
   2492.500     36.600     0.2089     2.2920     93.555
   2493.000     28.654     0.2177     2.4330    101.738
   2493.500     42.807     0.2435     2.3565     98.602
   2494.000     21.855     0.2595     2.3331    132.926
   2494.500     24.460     0.2281     2.3830    147.506
   2495.000     41.273     0.2574     2.4366     85.923
   2495.500     22.760     0.1918     2.2687    168.646
   2496.000     34.675     0.1995     2.4227    171.385
   2496.500     31.604     0.2371     2.3598     45.387
   2497.000     31.209     0.1871     2.3063     42.620
   2497.500     33.171     0.2047     2.3233     99.717
   2498.000     35.224     0.2305     2.3603    122.302
   2498.500     25.117     0.1834     2.3779     78.709
   2499.000     38.201     0.2064     2.2782     76.380
   2499.500     45.015     0.2243     2.3536    134.768
   2500.000     42.886     0.2358     2.3899    123.481
   2500.500     92.744     0.3507     2.4717      9.713
