~VERSION INFORMATION
 VERS.                    2.0 : CWLS Log ASCII Standard - VERSION 2.0
 WRAP.                     NO : ONE LINE PER DEPTH STEP

~WELL INFORMATION
 WELL.              Well-Alpha : WELL NAME
 FLD .                FIELD-A : FIELD NAME
 LOC .         SEC 12 T5N R6E : LOCATION
 CTRY.                    USA : COUNTRY
 SRVC.           SYNTH LOGGER : SERVICE COMPANY
 DATE.              2024-01-15 : LOG DATE
 UWI .       30-045-20130-00-00 : UNIQUE WELL ID

~CURVE INFORMATION
 DEPT.M                      : DEPTH
 GR  .GAPI                   : GAMMA RAY
 NPHI.V/V                    : NEUTRON POROSITY
 RHOB.G/CC                   : BULK DENSITY
 RT  .OHMM                   : TRUE RESISTIVITY

~PARAMETER INFORMATION
 STRT.M            1500.00 : START DEPTH
 STOP.M            3000.50 : STOP DEPTH
 STEP.M                  0.5 : STEP
 NULL.              -999.25 : NULL VALUE

~ASCII LOG DATA
# ...
   2072.000     50.160     0.2122     2.4536    153.415
   2072.500     38.557     0.2227     2.3540    130.785
   2073.000     42.451     0.2148     2.3948     59.650
   2073.500     31.150     0.2689     2.3320     52.874
   2074.000     39.495     0.2767     2.3293     87.939
   2074.500     27.317     0.2064     2.3021    159.333
   2075.000     38.889     0.2733     2.4140    173.996
   2075.500     31.042     0.2603     2.4277     74.565
   2076.000     36.342     0.2719     2.2864    146.400
   2076.500     39.545     0.2063     2.2517    120.269
   2077.000     48.292     0.2479     2.4138     44.297
   2077.500     22.131     0.2112     2.3848    115.734
   2078.000     47.532     0.2589     2.4259    153.040
   2078.500     26.681     0.1804     2.2937     78.501
   2079.000     32.525     0.2371     2.2637    165.933
   2079.500     20.319     0.2172     2.3392     73.861
   2080.000     25.589     0.2135     2.2680     50.156
   2080.500     33.247     0.2540     2.3088     62.553
   2081.000     23.779     0.2640     2.2676    157.327
   2081.500     36.253     0.2323     2.2981     97.835
   2082.000     49.687     0.2664     2.2701    151.895
   2082.500     21.984     0.2043     2.4293    114.241
   2083.000     42.002     0.2244     2.3043    108.068
   2083.500     28.714     0.2215     2.3433    153.467
   2084.000     41.519     0.1794     2.4439     99.288
   2084.500     30.000     0.2414     2.4019    152.176
   2085.000     26.953     0.2387     2.3679     54.959
   2085.500     28.022     0.2409     2.3848    128.794
   2086.000     22.959     0.2647     2.4162    138.494
   2086.500     28.683     0.2363     2.4201    165.841
   2087.000     39.526     0.1857     2.3907     72.003
   2087.500     42.917     0.1952     2.4290    125.227
   2088.000     46.145     0.2423     2.3576    100.927
   2088.500     36.946     0.2146     2.3119     93.324
   2089.000     23.653     0.1871     2.4276     54.862
   2089.500     30.586     0.2265     2.3613     58.178
   2090.000     29.943     0.2390     2.4339    157.303
   2090.500     32.055     0.2112     2.2566    144.562
   2091.000     31.518     0.2515     2.3205     94.647
   2091.500     35.901     0.2443     2.4572    155.714
   2092.000     30.741     0.2071     2.2909     51.820
   2092.500     27.925     0.2535     2.4548    128.233
   2093.000     42.549     0.2524     2.4442    161.959
   2093.500     41.989     0.2489     2.4204    157.188
   2094.000     27.035     0.2324     2.3683     91.901
   2094.500     47.198     0.1811     2.3872    145.805
   2095.000     47.379     0.2545     2.4411    100.833
   2095.500     30.438     0.2198     2.3920    157.771
   2096.000     31.932     0.2783     2.3746    114.137
   2096.500     36.333     0.2645     2.4602    146.645
   2097.000     47.413     0.2398     2.3946     50.690
   2097.500     46.859     0.2044     2.4500    122.959
   2098.000     25.147     0.1944     2.2763    118.196
   2098.500     32.673     0.2175     2.2760    125.337
   2099.000     40.319     0.2265     2.3163    137.989
   2099.500     37.058     0.2014     2.3233    168.984
   2100.000     29.253     0.2288     2.4267    149.849
   2100.500     40.780     0.2008     2.2851     71.249
   2101.000     40.502     0.2682     2.4368    156.141
   2101.500     44.489     0.1856     2.3264     57.550
   2102.000     45.513     0.2739     2.3442    126.901
   2102.500     40.841     0.2784     2.3064    163.944
   2103.000     33.969     0.2375     2.3717     54.752
   2103.500     34.700     0.2600     2.2516    159.435
   2104.000     25.618     0.2246     2.2763    152.346
   2104.500     38.666     0.2420     2.3985    110.427
   2105.000     24.377     0.2183     2.2983     83.782
   2105.500     41.695     0.2056     2.2916     97.406
   2106.000     27.046     0.2329     2.4083    175.384
   2106.500     25.634     0.2240     2.2831     67.546
   2107.000     23.020     0.2434     2.3627    121.962
   2107.500     19.898     0.2045     2.2459     51.422
   2108.000     43.340     0.2217     2.3208     70.134
   2108.500     42.694     0.1891     2.3747    146.970
   2109.000     36.299     0.1907     2.2679     82.229
   2109.500     27.057     0.1998     2.4248    177.044
   2110.000     21.694     0.1843     2.4444    110.560
   2110.500     19.340     0.1926     2.2593    112.749
   2111.000     26.124     0.2591     2.4350     44.568
   2111.500     46.427     0.1714     2.3247    173.901
   2112.000     29.491     0.2390     2.2605     63.884
   2112.500     31.368     0.2017     2.2530    114.938
   2113.000     21.914     0.2620     2.3347     95.093
   2113.500     27.348     0.2319     2.3681     98.446
   2114.000     33.771     0.2122     2.3086    131.068
   2114.500     40.126     0.2326     2.4286    132.486
   2115.000     24.566     0.2282     2.4001     62.020
   2115.500     24.176     0.2423     2.3199    110.341
   2116.000     32.373     0.1955     2.3955    149.602
   2116.500     26.697     0.2722     2.4413    101.368
   2117.000     28.113     0.2229     2.2724     64.236
   2117.500     49.819     0.2163     2.3238     83.597
   2118.000     41.150     0.2489     2.3425     69.960
   2118.500     39.348     0.2249     2.3540     57.783
   2119.000     33.178     0.2636     2.3656     91.797
   2119.500     31.125     0.2193     2.3175    115.390
   2120.000     35.144     0.2470     2.3979     50.549
   2120.500     40.750     0.2022     2.3789    124.066
   2121.000     43.228     0.2625     2.3599    178.834
   2121.500     24.238     0.2432     2.2692    174.375
   2122.000     34.258     0.1982     2.3518    155.664
   2122.500     36.055     0.1854     2.3202     77.024
   2123.000     45.907     0.2162     2.3711     42.207
   2123.500     37.673     0.2678     2.4345    157.282
   2124.000     37.528     0.1987     2.3366     47.107
   2124.500     23.350     0.2256     2.2560     68.702
   2125.000     35.390     0.1885     2.3532    115.851
   2125.500     25.598     0.2194     2.4060     65.511
   2126.000     28.622     0.2308     2.3976    156.114
   2126.500     24.372     0.2762     2.3508    148.411
   2127.000     40.626     0.2293     2.2935    145.139
   2127.500     26.648     0.2676     2.3295    153.054
   2128.000     27.374     0.2390     2.3473     71.013
   2128.500     46.200     0.1814     2.4523    142.061
   2129.000     28.379     0.2154     2.3860     89.849
   2129.500     37.765     0.2389     2.3818    133.764
   2130.000     30.596     0.2819     2.3476     57.137
   2130.500     22.385     0.2696     2.3227    138.560
   2131.000     42.260     0.2056     2.4015    176.225
   2131.500     21.322     0.2087     2.3576     45.851
   2132.000     33.584     0.2002     2.4511     53.692
   2132.500     37.038     0.2684     2.3467     57.128
   2133.000     40.856     0.2663     2.2704    100.219
   2133.500     41.188     0.2557     2.4108     81.028
   2134.000     27.346     0.2223     2.2491    154.137
   2134.500     22.234     0.2307     2.2912    105.819
   2135.000     40.098     0.2284     2.3376    107.226
   2135.500     35.915     0.1993     2.4044    140.263
   2136.000     47.075     0.2330     2.3495     90.302
   2136.500     45.700     0.1766     2.2509     89.799
   2137.000     44.367     0.1980     2.3711    146.068
   2137.500     31.527     0.2735     2.3302    148.646
   2138.000     30.631     0.2569     2.4194     42.391
   2138.500     40.589     0.2238     2.3596     61.055
   2139.000     33.114     0.2306     2.3717     69.434
   2139.500     27.861     0.2140     2.2853     89.387
   2140.000     46.843     0.2540     2.3979     79.705
   2140.500     42.429     0.2683     2.4156    133.409
   2141.000     34.390     0.2575     2.4298    156.094
   2141.500     21.633     0.2455     2.2599     66.821
   2142.000     29.087     0.1919     2.3307    118.874
   2142.500     44.776     0.2066     2.3945     91.105
   2143.000     46.070     0.2251     2.2986    111.439
