~VERSION INFORMATION
 VERS.                    2.0 : CWLS Log ASCII Standard - VERSION 2.0
 WRAP.                     NO : ONE LINE PER DEPTH STEP

~WELL INFORMATION
 WELL.              Well-Alpha : WELL NAME
 FLD .                FIELD-A : FIELD NAME
 LOC .         SEC 12 T5N R6E : LOCATION
 CTRY.                    USA : COUNTRY
 SRVC.           SYNTH LOGGER : SERVICE COMPANY
 DATE.              2024-01-15 : LOG DATE
 UWI .       30-045-20130-00-00 : UNIQUE WELL ID

~CURVE INFORMATION
 DEPT.M                      : DEPTH
 GR  .GAPI                   : GAMMA RAY
 NPHI.V/V                    : NEUTRON POROSITY
 RHOB.G/CC                   : BULK DENSITY
 RT  .OHMM                   : TRUE RESISTIVITY

~PARAMETER INFORMATION
 STRT.M            1500.00 : START DEPTH
 STOP.M            3000.50 : STOP DEPTH
 STEP.M                  0.5 : STEP
 NULL.              -999.25 : NULL VALUE

~ASCII LOG DATA
   1500.000     94.638     0.3220     2.5231      6.754
   1500.500    117.689     0.3557     2.5067     11.049
   1501.000    107.667     0.2883     2.4844      9.716
   1501.500    101.255     0.3102     2.6000      7.655
   1502.000     89.637     0.3591     2.5582      3.846
   1502.500     84.510     0.2816     2.5048      1.943
   1503.000     85.459     0.3753     2.5110      6.513
   1503.500    112.928     0.3773     2.6650      8.781
   1504.000    105.095     0.2905     2.6267      9.259
   1504.500    106.047     0.3031     2.6361      3.356
   1505.000     81.870     0.3130     2.5421      1.747
   1505.500    118.145     0.3533     2.5779      5.873
   1506.000    112.673     0.3504     2.5085     10.844
   1506.500     89.714     0.3436     2.4598      7.504
   1507.000     86.335     0.3554     2.5410      4.272
   1507.500     84.480     0.2914     2.5681      4.080
   1508.000     93.692     0.3711     2.4962      3.008
   1508.500     98.698     0.3425     2.6127      6.785
   1509.000     98.311     0.3374     2.4733      9.502
   1509.500     93.595     0.3609     2.5230     11.161
   1510.000    103.723     0.3381     2.4666      7.391
   1510.500     87.944     0.2965     2.5452      3.227
   1511.000     92.649     0.3250     2.4600      8.172
   1511.500     93.263     0.3254     2.4906      8.698
   1512.000    101.046     0.2875     2.5455      1.909
   1512.500    109.124     0.3760     2.5452     10.229
   1513.000     87.234     0.2922     2.5638     10.589
   1513.500    100.157     0.3561     2.5081      6.453
   1514.000    104.907     0.3276     2.5588      7.317
   1514.500     84.089     0.2845     2.5484      8.533
   1515.000    106.407     0.3635     2.5165      9.296
   1515.500     87.268     0.3657     2.6145      2.162
   1516.000     82.042     0.3311     2.5627      3.234
   1516.500    114.303     0.2970     2.5146      3.177
   1517.000    115.997     0.2942     2.6366      9.635
   1517.500    115.869     0.3126     2.6044      4.833
   1518.000     88.512     0.3142     2.6465      7.329
   1518.500     82.338     0.3185     2.5907     10.575
   1519.000    109.659     0.3779     2.5441      4.790
   1519.500     98.026     0.3377     2.5110      8.871
   1520.000     86.738     0.3676     2.5754      6.073
   1520.500    100.893     0.3424     2.6360      5.030
   1521.000     84.315     0.3279     2.5780      4.535
   1521.500    116.964     0.3708     2.6189     11.764
   1522.000     91.678     0.3188     2.5101     10.018
   1522.500    105.052     0.3628     2.5239      1.849
   1523.000     93.641     0.3039     2.6280     10.980
   1523.500    100.010     0.2874     2.6087      9.308
   1524.000    100.962     0.3672     2.6264      3.227
   1524.500     89.184     0.3417     2.6179      2.630
   1525.000    120.587     0.3742     2.5377      4.632
   1525.500    114.382     0.3768     2.5499      7.607
   1526.000    120.826     0.2888     2.6390      8.361
   1526.500    117.628     0.3230     2.5583      5.303
   1527.000    100.475     0.3249     2.4906      6.741
   1527.500    120.530     0.3415     2.5219      4.717
   1528.000     85.376     0.3645     2.5602      1.720
   1528.500     86.308     0.3012     2.4769      7.444
   1529.000     83.267     0.3345     2.5946      5.788
   1529.500     90.939     0.3556     2.4851      6.957
   1530.000     96.784     0.2936     2.5313     11.026
   1530.500     88.221     0.3576     2.6242      2.525
   1531.000    111.533     0.3472     2.5339      1.475
   1531.500     95.690     0.3691     2.6076      1.554
   1532.000     93.383     0.3139     2.5132      7.203
   1532.500    102.359     0.2940     2.6375      8.281
   1533.000     85.065     0.3411     2.5034      7.809
   1533.500    107.858     0.2863     2.4606      5.565
   1534.000     82.564     0.3756     2.6169      6.239
   1534.500    120.542     0.2816     2.6006      5.379
   1535.000    110.256     0.3565     2.4921      4.654
   1535.500     87.903     0.3354     2.6389      8.075
   1536.000     79.850     0.3223     2.5497      3.141
   1536.500    111.975     0.2904     2.6383      9.677
   1537.000    108.426     0.3397     2.5433      7.858
   1537.500    108.615     0.3426     2.5366      3.926
   1538.000    113.737     0.3085     2.5480      6.735
   1538.500     78.549     0.3747     2.5212     10.704
   1539.000     93.247     0.3144     2.5662      1.757
   1539.500     82.894     0.3331     2.5377      2.565
   1540.000    114.962     0.3326     2.4465      6.861
   1540.500    105.086     0.2873     2.4963      7.471
   1541.000     96.480     0.3755     2.5029      3.876
   1541.500     86.445     0.3234     2.6075     11.694
   1542.000     90.893     0.2884     2.5842      9.179
   1542.500     93.008     0.3250     2.5916     11.600
   1543.000    109.577     0.3435     2.6492      5.655
   1543.500    103.907     0.3304     2.5686     10.196
   1544.000    116.745     0.3523     2.6406      6.029
   1544.500     98.410     0.2834     2.4918      4.292
   1545.000     82.649     0.3096     2.5058     11.253
   1545.500    107.971     0.3566     2.5364      2.158
   1546.000    108.436     0.2876     2.5505     12.271
   1546.500    104.524     0.3705     2.6241      5.913
   1547.000    114.642     0.2930     2.5527     11.387
   1547.500    100.241     0.3665     2.5162      7.370
   1548.000    101.132     0.3175     2.5865      8.558
   1548.500     97.407     0.3420     2.5495      1.633
   1549.000     83.381     0.2890     2.4699      7.532
   1549.500     86.637     0.2856     2.5666      9.451
   1550.000     81.026     0.3025     2.6131      9.735
   1550.500    105.962     0.2872     2.6037      2.740
   1551.000     93.880     0.3025     2.5588      5.148
   1551.500     98.067     0.3371     2.5316      6.332
   1552.000    118.728     0.3391     2.4621      2.602
   1552.500     93.441     0.3600     2.5538      6.464
   1553.000     98.745     0.3484     2.6154      8.878
   1553.500    107.731     0.3360     2.5190      5.018
   1554.000     85.212     0.3192     2.4823      7.035
   1554.500     84.497     0.3349     2.6459     12.261
   1555.000     90.070     0.3190     2.5989      1.981
   1555.500     87.023     0.3629     2.5686      7.189
   1556.000    120.258     0.2997     2.4603      9.367
   1556.500    111.011     0.2769     2.4886      9.566
   1557.000    104.581     0.3507     2.4764      8.770
   1557.500    115.412     0.2879     2.5894      8.918
   1558.000    109.552     0.3667     2.4687      3.169
   1558.500     85.947     0.3670     2.6103      6.626
   1559.000    115.752     0.2962     2.6433      9.507
   1559.500    100.973     0.2850     2.5099      2.768
   1560.000    113.514     0.3230     2.5550      2.717
   1560.500    121.376     0.3366     2.6261      9.902
   1561.000     92.918     0.3110     2.6302      8.080
   1561.500     82.719     0.3523     2.6347      4.760
   1562.000     91.954     0.3323     2.4600     12.634
   1562.500     93.907     0.3130     2.4882      8.595
   1563.000    109.943     0.2903     2.6115     11.701
   1563.500    113.239     0.3563     2.5763     10.502
   1564.000     79.712     0.3023     2.4719      6.159
   1564.500     99.192     0.3646     2.5624      9.100
   1565.000     96.633     0.3241     2.6113      7.549
   1565.500     89.434     0.3314     2.4970     10.630
   1566.000     86.933     0.3661     2.6294      9.986
   1566.500     93.687     0.3655     2.4667      2.895
   1567.000    116.592     0.3147     2.6180      3.667
   1567.500     94.957     0.3043     2.5807      4.834
   1568.000     99.116     0.3543     2.5125     10.139
   1568.500    104.856     0.3215     2.5977     11.056
   1569.000     96.957     0.2929     2.6058      6.477
   1569.500    121.155     0.3723     2.6293      7.812
   1570.000    116.913     0.3045     2.5230      9.567
   1570.500     89.273     0.2808     2.5861      4.566
   1571.000     98.056     0.2861     2.5535      2.546
