~VERSION INFORMATION
 VERS.                    2.0 : CWLS Log ASCII Standard - VERSION 2.0
 WRAP.                     NO : ONE LINE PER DEPTH STEP

~WELL INFORMATION
 WELL.              Well-Alpha : WELL NAME
 FLD .                FIELD-A : FIELD NAME
 LOC .         SEC 12 T5N R6E : LOCATION
 CTRY.                    USA : COUNTRY
 SRVC.           SYNTH LOGGER : SERVICE COMPANY
 DATE.              2024-01-15 : LOG DATE
 UWI .       30-045-20130-00-00 : UNIQUE WELL ID

~CURVE INFORMATION
 DEPT.M                      : DEPTH
 GR  .GAPI                   : GAMMA RAY
 NPHI.V/V                    : NEUTRON POROSITY
 RHOB.G/CC                   : BULK DENSITY
 RT  .OHMM                   : TRUE RESISTIVITY

~PARAMETER INFORMATION
 STRT.M            1500.00 : START DEPTH
 STOP.M            3000.50 : STOP DEPTH
 STEP.M                  0.5 : STEP
 NULL.              -999.25 : NULL VALUE

~ASCII LOG DATA
# ...
   1714.500     81.557     0.3524     2.6493     11.276
   1715.000     88.394     0.3677     2.6220     11.396
   1715.500    112.826     0.3138     2.5603      7.960
   1716.000    104.514     0.3244     2.5746      5.365
   1716.500     86.044     0.3712     2.5867      8.846
   1717.000     87.171     0.3449     2.4812      9.771
   1717.500    109.547     0.2913     2.4911      6.079
   1718.000     83.870     0.3393     2.5653      6.889
   1718.500    113.272     0.2981     2.6505      8.171
   1719.000    109.549     0.3318     2.4558     11.128
   1719.500     82.526     0.3402     2.6128      9.883
   1720.000     82.840     0.3738     2.4662      2.306
   1720.500    120.367     0.3285     2.5426      2.816
   1721.000     94.023     0.3168     2.5967     10.746
   1721.500     94.094     0.2930     2.6005     10.484
   1722.000    112.512     0.3697     2.4640      5.309
   1722.500    120.191     0.3034     2.5316      7.184
   1723.000    117.175     0.3253     2.5652     11.415
   1723.500    111.653     0.2921     2.4666     10.643
   1724.000     96.634     0.3643     2.4767      9.554
   1724.500     84.912     0.3312     2.5941      3.518
   1725.000    109.472     0.3168     2.5591      9.352
   1725.500     98.951     0.3166     2.4728      2.899
   1726.000     98.088     0.3752     2.5456     10.108
   1726.500    116.629     0.3376     2.6424      2.703
   1727.000     86.457     0.3506     2.4416      8.069
   1727.500     98.304     0.3656     2.5750      7.794
   1728.000     81.974     0.3740     2.4603      8.661
   1728.500    100.855     0.3178     2.4389      7.858
   1729.000     82.062     0.3755     2.4832      2.156
   1729.500     85.587     0.2797     2.5333      8.844
   1730.000     85.465     0.3243     2.6041      5.901
   1730.500    104.325     0.3651     2.5272      5.122
   1731.000    110.904     0.3173     2.5508     12.166
   1731.500    106.580     0.3036     2.5236      7.691
   1732.000    118.531     0.3039     2.4911      9.015
   1732.500     92.073     0.3355     2.5393      7.449
   1733.000     90.054     0.3183     2.6321      9.851
   1733.500    111.185     0.3515     2.6390     10.261
   1734.000     91.524     0.3672     2.6125      8.470
   1734.500    120.057     0.3525     2.5304     12.302
   1735.000     79.483     0.3049     2.6147      6.266
   1735.500    115.959     0.3722     2.5090      9.077
   1736.000     80.060     0.3220     2.5966     10.065
   1736.500    114.369     0.2938     2.6440      5.226
   1737.000    101.327     0.2885     2.4668      5.977
   1737.500    119.870     0.3300     2.5506     11.997
   1738.000     85.635     0.2910     2.5811      2.066
   1738.500    100.769     0.2954     2.5809      5.754
   1739.000    115.756     0.3041     2.4776      6.608
   1739.500     98.610     0.3057     2.6259      1.018
   1740.000    105.130     0.3421     2.5809     10.947
   1740.500    106.373     0.3591     2.4850      4.890
   1741.000     97.598     0.3525     2.4570      3.145
   1741.500    104.194     0.3102     2.6064     10.110
   1742.000    105.353     0.2981     2.4545      4.752
   1742.500    114.872     0.3711     2.4813      8.522
   1743.000     81.063     0.2817     2.5710      9.947
   1743.500     92.673     0.3722     2.5620      9.220
   1744.000    116.886     0.3015     2.5871      9.705
   1744.500    116.457     0.3736     2.5222      1.819
   1745.000     98.889     0.3127     2.6026      2.675
   1745.500    105.089     0.3291     2.6335      4.752
   1746.000     88.826     0.3550     2.5015      2.625
   1746.500     89.984     0.3390     2.6069      5.778
   1747.000    102.989     0.3104     2.6307      5.475
   1747.500     94.152     0.3356     2.5804      7.715
   1748.000    101.254     0.3494     2.5800      5.209
   1748.500     83.168     0.2835     2.4929      6.987
   1749.000    120.956     0.2787     2.5749      4.538
   1749.500    118.218     0.3253     2.5766      3.309
   1750.000    107.669     0.2909     2.5886      7.200
   1750.500    102.125     0.3491     2.6429      8.594
   1751.000     94.787     0.3055     2.4391     10.789
   1751.500    114.103     0.3214     2.4539     10.688
   1752.000    109.023     0.2957     2.4458      9.185
   1752.500     85.652     0.3384     2.6060      8.994
   1753.000    117.241     0.2925     2.4906      1.937
   1753.500    111.458     0.2805     2.5707      1.437
   1754.000    119.683     0.2920     2.5188     10.702
   1754.500    111.331     0.3726     2.5306      4.162
   1755.000    105.643     0.2843     2.4737      4.608
   1755.500     95.995     0.3473     2.6238      3.211
   1756.000    116.902     0.2949     2.5711      3.649
   1756.500    118.256     0.2892     2.6560     10.297
   1757.000     81.107     0.3283     2.5856      4.486
   1757.500     83.155     0.3266     2.4720      6.453
   1758.000     95.736     0.3802     2.4933      3.192
   1758.500    111.754     0.3741     2.6510      8.233
   1759.000    116.802     0.3609     2.5951      9.483
   1759.500     86.440     0.3393     2.4595      5.285
   1760.000    103.947     0.3285     2.5893      9.263
   1760.500     98.849     0.3165     2.5314      3.690
   1761.000    117.076     0.3727     2.5280      8.197
   1761.500    118.274     0.3416     2.4830      9.694
   1762.000    114.291     0.3352     2.6354     12.660
   1762.500     99.503     0.2963     2.4538      4.517
   1763.000     95.407     0.2846     2.4796      2.672
   1763.500     91.566     0.3681     2.5066      4.229
   1764.000     83.201     0.3144     2.4738      2.645
   1764.500    116.464     0.3241     2.5367      2.789
   1765.000    110.559     0.2986     2.4653      5.982
   1765.500    122.802     0.3620     2.4968      5.330
   1766.000    120.588     0.2827     2.6426     10.564
   1766.500    103.434     0.3561     2.5322      3.456
   1767.000    110.318     0.2885     2.5106     11.647
   1767.500    115.934     0.3603     2.5423     10.308
   1768.000    114.131     0.3584     2.5759     10.419
   1768.500     90.269     0.2942     2.6076     10.265
   1769.000     95.251     0.3432     2.4914      9.293
   1769.500     86.753     0.2979     2.6307      9.700
   1770.000    120.155     0.3056     2.6032      5.974
   1770.500    102.788     0.3656     2.5900      6.730
   1771.000     87.101     0.3221     2.4596     11.116
   1771.500    106.262     0.3145     2.4434      4.809
   1772.000    104.773     0.2996     2.5748      2.672
   1772.500     93.798     0.3164     2.6160     10.212
   1773.000     84.420     0.3612     2.5788      8.216
   1773.500    107.306     0.3103     2.5085      9.463
   1774.000     98.076     0.3690     2.4565      2.495
   1774.500    108.386     0.3765     2.5973      7.812
   1775.000     95.362     0.2913     2.6149      3.862
   1775.500    115.972     0.2895     2.4760     10.520
   1776.000    102.107     0.3681     2.4676      3.937
   1776.500    104.533     0.3084     2.5373     10.228
   1777.000    112.791     0.2871     2.5761      1.969
   1777.500     96.188     0.3173     2.5836      1.833
   1778.000     85.790     0.3332     2.6310      4.350
   1778.500     80.028     0.3652     2.5654      4.926
   1779.000    107.099     0.2951     2.4786      8.201
   1779.500    108.304     0.2886     2.5859      3.384
   1780.000    110.962     0.3699     2.6522      5.615
   1780.500     87.755     0.3584     2.6213      3.734
   1781.000     86.475     0.3388     2.6121     10.161
   1781.500     79.612     0.3439     2.5133      1.585
   1782.000     92.033     0.3333     2.5965      6.113
   1782.500    107.251     0.3580     2.6162      8.085
   1783.000     92.379     0.3169     2.5911     10.556
   1783.500     96.928     0.3008     2.4852     10.558
   1784.000    116.335     0.3520     2.6528     10.295
   1784.500     97.233     0.3283     2.5414      2.051
   1785.000    102.353     0.3794     2.4836      9.990
   1785.500    108.002     0.3168     2.4772      9.945
