~VERSION INFORMATION
 VERS.                    2.0 : CWLS Log ASCII Standard - VERSION 2.0
 WRAP.                     NO : ONE LINE PER DEPTH STEP

~WELL INFORMATION
 WELL.              Well-Alpha : WELL NAME
 FLD .                FIELD-A : FIELD NAME
 LOC .         SEC 12 T5N R6E : LOCATION
 CTRY.                    USA : COUNTRY
 SRVC.           SYNTH LOGGER : SERVICE COMPANY
 DATE.              2024-01-15 : LOG DATE
 UWI .       30-045-20130-00-00 : UNIQUE WELL ID

~CURVE INFORMATION
 DEPT.M                      : DEPTH
 GR  .GAPI                   : GAMMA RAY
 NPHI.V/V                    : NEUTRON POROSITY
 RHOB.G/CC                   : BULK DENSITY
 RT  .OHMM                   : TRUE RESISTIVITY

~PARAMETER INFORMATION
 STRT.M            1500.00 : START DEPTH
 STOP.M            3000.50 : STOP DEPTH
 STEP.M                  0.5 : STEP
 NULL.              -999.25 : NULL VALUE

~ASCII LOG DATA
# ...
   2000.500     39.384     0.1909     2.4194     52.242
   2001.000     37.599     0.2327     2.3979     44.126
   2001.500     47.510     0.1939     2.3719    124.797
   2002.000     43.459     0.2302     2.4414     86.932
   2002.500     20.589     0.2612     2.2715     98.768
   2003.000     42.513     0.2128     2.4449     97.582
   2003.500     21.359     0.2378     2.3169     51.838
   2004.000     34.563     0.2793     2.3577     39.917
   2004.500     27.421     0.2460     2.2700    166.278
   2005.000     28.417     0.2580     2.3820     70.482
   2005.500     29.147     0.2237     2.3710     99.250
   2006.000     38.333     0.2610     2.4531    176.314
   2006.500     33.038     0.1773     2.4506    155.394
   2007.000     40.786     0.1980     2.4467     55.455
   2007.500     31.160     0.1998     2.3194    111.436
   2008.000     22.970     0.2139     2.4383    142.098
   2008.500     43.163     0.2603     2.3400    136.932
   2009.000     25.914     0.2099     2.4017    146.056
   2009.500     32.861     0.2408     2.2981    104.803
   2010.000     40.366     0.2538     2.3804     65.502
   2010.500     31.925     0.2429     2.4450    106.379
   2011.000     19.753     0.2242     2.4428    130.904
   2011.500     33.182     0.2342     2.3712    124.658
   2012.000     48.138     0.2159     2.4014     50.543
   2012.500     37.036     0.1852     2.2942     48.961
   2013.000     37.527     0.2794     2.3799    174.795
   2013.500     42.837     0.1853     2.3663     61.420
   2014.000     25.650     0.1816     2.2740     82.173
   2014.500     34.423     0.2719     2.2807    147.416
   2015.000     39.112     0.2028     2.2706     97.363
   2015.500     28.317     0.2481     2.3961     64.639
   2016.000     30.122     0.2095     2.2795    105.466
   2016.500     27.779     0.2095     2.3312    119.986
   2017.000     32.348     0.1935     2.3207    103.344
   2017.500     50.880     0.2216     2.3625    168.646
   2018.000     23.379     0.2115     2.3904     79.970
   2018.500     35.926     0.2517     2.3677    132.062
   2019.000     25.403     0.2329     2.3685     54.582
   2019.500     50.242     0.2678     2.3319     94.868
   2020.000     19.916     0.1814     2.3303    143.626
   2020.500     31.365     0.2327     2.4256     71.759
   2021.000     38.843     0.2399     2.3116    123.766
   2021.500     42.346     0.2697     2.3043     62.129
   2022.000     31.330     0.1861     2.3909     53.350
   2022.500     27.253     0.2368     2.3434    114.513
   2023.000     30.341     0.2605     2.4168    134.834
   2023.500     28.227     0.2102     2.3246     55.739
   2024.000     25.750     0.2687     2.3795    169.227
   2024.500     32.145     0.1727     2.2662     70.332
   2025.000     24.646     0.2559     2.3199     56.524
   2025.500     28.772     0.2702     2.3047     68.476
   2026.000     38.541     0.2443     2.4027     63.774
   2026.500     48.540     0.2239     2.4349     53.451
   2027.000     37.790     0.1805     2.3433    152.288
   2027.500     23.170     0.2810     2.4437    109.716
   2028.000     23.961     0.2196     2.4173     94.254
   2028.500     48.836     0.1832     2.4403    173.569
   2029.000     28.278     0.2509     2.4218     91.642
   2029.500     22.812     0.2284     2.2530     63.762
   2030.000     37.293     0.1915     2.3716     78.002
   2030.500     35.424     0.1995     2.3574     73.602
   2031.000     41.639     0.1824     2.2588    109.096
   2031.500     29.829     0.2333     2.3081     81.328
   2032.000     24.430     0.2480     2.4451    112.026
   2032.500     53.511     0.2284     2.4319    133.017
   2033.000     25.175     0.2724     2.4105    148.340
   2033.500     39.610     0.2694     2.4546    139.269
   2034.000     46.222     0.2282     2.4232     68.327
   2034.500     38.219     0.1857     2.2430     56.586
   2035.000     29.876     0.2493     2.3097    115.804
   2035.500     25.091     0.2149     2.2626     68.315
   2036.000     38.231     0.2431     2.2703     51.749
   2036.500     49.847     0.2427     2.2875    114.152
   2037.000     50.975     0.2124     2.3507     85.756
   2037.500     21.957     0.2736     2.4248    145.731
   2038.000     23.852     0.1991     2.4148     83.467
   2038.500     46.080     0.2477     2.3613    177.054
   2039.000     40.394     0.1806     2.4562    146.561
   2039.500     42.669     0.2690     2.3519     47.733
   2040.000     25.909     0.1969     2.4372    111.236
   2040.500     40.648     0.1901     2.3429    118.491
   2041.000     41.745     0.2122     2.3159    138.310
   2041.500     43.136     0.2156     2.4341    109.848
   2042.000     34.391     0.2066     2.3335    107.727
   2042.500     19.368     0.2372     2.3396     91.269
   2043.000     35.969     0.2294     2.2981     78.447
   2043.500     26.151     0.1811     2.3778    172.468
   2044.000     30.074     0.2156     2.4347     84.431
   2044.500     48.792     0.2621     2.2339     48.842
   2045.000     26.162     0.2442     2.4330     62.867
   2045.500     46.377     0.2521     2.2331    160.767
   2046.000     25.800     0.2389     2.3323    122.588
   2046.500     41.117     0.2074     2.2981    149.034
   2047.000     51.424     0.1821     2.3870    153.178
   2047.500     23.454     0.2172     2.2630    154.812
   2048.000     23.513     0.2553     2.3793    116.348
   2048.500     34.251     0.2910     2.3043     64.356
   2049.000     21.265     0.2320     2.2828     61.324
   2049.500     41.976     0.1784     2.4283    120.164
   2050.000     42.914     0.1980     2.2767     91.853
   2050.500     31.216     0.2090     2.2845    118.112
   2051.000     26.999     0.2308     2.3107    109.353
   2051.500     34.125     0.1879     2.3891    123.941
   2052.000     40.203     0.2778     2.3748     44.619
   2052.500     17.779     0.2229     2.2779     43.787
   2053.000     33.909     0.2737     2.2997    140.640
   2053.500     37.206     0.2554     2.3165     66.811
   2054.000     43.032     0.2625     2.3323    131.718
   2054.500     27.803     0.2465     2.4222    116.662
   2055.000     43.301     0.2440     2.4120    177.545
   2055.500     20.942     0.2499     2.3586    157.189
   2056.000     22.831     0.2538     2.3101     98.356
   2056.500     43.882     0.2327     2.3752    126.323
   2057.000     41.967     0.2741     2.4027     55.903
   2057.500     16.424     0.2504     2.3699     94.188
   2058.000     25.438     0.2509     2.4126    142.324
   2058.500     25.259     0.2702     2.3944    126.139
   2059.000     25.482     0.1935     2.3500    107.920
   2059.500     23.179     0.1947     2.2997     64.972
   2060.000     22.455     0.2249     2.4029    152.614
   2060.500     33.860     0.2382     2.2925     78.496
   2061.000     43.540     0.2501     2.4098    155.424
   2061.500     35.981     0.2225     2.4265    125.141
   2062.000     41.706     0.2306     2.4202     91.988
   2062.500     25.493     0.2395     2.3487     45.041
   2063.000     49.069     0.1922     2.3122     72.763
   2063.500     43.935     0.2298     2.2672    165.084
   2064.000     44.443     0.2671     2.4225    154.244
   2064.500     43.374     0.2011     2.4415    120.841
   2065.000     46.333     0.2411     2.3772    104.900
   2065.500     37.694     0.2423     2.2869    130.923
   2066.000     25.730     0.1990     2.4348    104.158
   2066.500     40.914     0.1967     2.4335    130.964
   2067.000     41.402     0.2725     2.3366     82.491
   2067.500     41.455     0.2254     2.3543    157.474
   2068.000     34.510     0.2038     2.4078    138.971
   2068.500     19.813     0.1979     2.4053     85.613
   2069.000     32.762     0.2496     2.4414    157.173
   2069.500     51.994     0.2346     2.2753    109.279
   2070.000     36.769     0.2366     2.3683     64.794
   2070.500     34.789     0.1882     2.3968     50.888
   2071.000     26.575     0.2771     2.4289    137.852
   2071.500     29.694     0.2130     2.4217    161.404
